id,cidade,id_estado,sigla,estado,latitude,longitude,gps,populacao
1100015,ALTA FLORESTA D'OESTE,11,RO,RONDONIA,-11.9296917,-61.9961284,"-11.9296917,-61.9961284",22945
1100023,ARIQUEMES,11,RO,RONDONIA,-9.9076522,-63.0330690,"-9.9076522,-63.033069",107863
1100031,CABIXI,11,RO,RONDONIA,-13.4956065,-60.5424442,"-13.4956065,-60.5424442",5312
1100049,CACOAL,11,RO,RONDONIA,-11.4333000,-61.4420502,"-11.4333,-61.4420502",85359
1100056,CEREJEIRAS,11,RO,RONDONIA,-13.1869870,-60.8168360,"-13.186987,-60.816836",16323
1100064,COLORADO DO OESTE,11,RO,RONDONIA,-13.1174310,-60.5454280,"-13.117431,-60.545428",15882
1100072,CORUMBIARA,11,RO,RONDONIA,-12.9977668,-60.9455009,"-12.9977668,-60.9455009",7391
1100080,COSTA MARQUES,11,RO,RONDONIA,-12.4367165,-64.2279765,"-12.4367165,-64.2279765",18331
1100098,ESPIGAO D'OESTE,11,RO,RONDONIA,-11.5321750,-61.0130935,"-11.532175,-61.0130935",32374
1100106,GUAJARA-MIRIM,11,RO,RONDONIA,-10.7804239,-65.3327825,"-10.7804239,-65.3327825",46174
1100114,JARU,11,RO,RONDONIA,-10.4318260,-62.4787690,"-10.431826,-62.478769",51775
1100122,JI-PARANA,11,RO,RONDONIA,-10.8778148,-61.9277854,"-10.8778148,-61.9277854",128969
1100130,MACHADINHO D'OESTE,11,RO,RONDONIA,-9.4240851,-61.9923719,"-9.4240851,-61.9923719",39991
1100148,NOVA BRASILANDIA D'OESTE,11,RO,RONDONIA,-11.7226920,-62.3155450,"-11.722692,-62.315545",20474
1100155,OURO PRETO DO OESTE,11,RO,RONDONIA,-10.7223354,-62.2533413,"-10.7223354,-62.2533413",36035
1100189,PIMENTA BUENO,11,RO,RONDONIA,-11.6767868,-61.1863902,"-11.6767868,-61.1863902",36660
1100205,PORTO VELHO,11,RO,RONDONIA,-8.7494525,-63.8735438,"-8.7494525,-63.8735438",529544
1100254,PRESIDENTE MEDICI,11,RO,RONDONIA,-11.1686638,-61.9057627,"-11.1686638,-61.9057627",18986
1100262,RIO CRESPO,11,RO,RONDONIA,-9.7052777,-62.9004474,"-9.7052777,-62.9004474",3764
1100288,ROLIM DE MOURA,11,RO,RONDONIA,-11.7270710,-61.7714110,"-11.727071,-61.771411",55058
1100296,SANTA LUZIA D'OESTE,11,RO,RONDONIA,-11.9064424,-61.7797356,"-11.9064424,-61.7797356",6495
1100304,VILHENA,11,RO,RONDONIA,-12.7368536,-60.1465555,"-12.7368536,-60.1465555",99854
1100320,SAO MIGUEL DO GUAPORE,11,RO,RONDONIA,-11.6951466,-62.7195739,"-11.6951466,-62.7195739",23005
1100338,NOVA MAMORE,11,RO,RONDONIA,-10.4104864,-65.3313761,"-10.4104864,-65.3313761",30583
1100346,ALVORADA D'OESTE,11,RO,RONDONIA,-11.3462710,-62.2846970,"-11.346271,-62.284697",14411
1100379,ALTO ALEGRE DOS PARECIS,11,RO,RONDONIA,-12.1314515,-61.8562650,"-12.1314515,-61.856265",13241
1100403,ALTO PARAISO,11,RO,RONDONIA,-9.7240103,-63.3188123,"-9.7240103,-63.3188123",21428
1100452,BURITIS,11,RO,RONDONIA,-10.2054937,-63.8281954,"-10.2054937,-63.8281954",39654
1100502,NOVO HORIZONTE DO OESTE,11,RO,RONDONIA,-11.7105311,-61.9993277,"-11.7105311,-61.9993277",8538
1100601,CACAULANDIA,11,RO,RONDONIA,-10.3380043,-62.9007231,"-10.3380043,-62.9007231",6230
1100700,CAMPO NOVO DE RONDONIA,11,RO,RONDONIA,-10.5704235,-63.6199511,"-10.5704235,-63.6199511",14139
1100809,CANDEIAS DO JAMARI,11,RO,RONDONIA,-8.7949939,-63.7018851,"-8.7949939,-63.7018851",26693
1100908,CASTANHEIRAS,11,RO,RONDONIA,-11.4277212,-61.9486802,"-11.4277212,-61.9486802",3052
1100924,CHUPINGUAIA,11,RO,RONDONIA,-12.5528918,-60.9027819,"-12.5528918,-60.9027819",11182
1100940,CUJUBIM,11,RO,RONDONIA,-9.3687919,-62.5832107,"-9.3687919,-62.5832107",25215
1101005,GOVERNADOR JORGE TEIXEIRA,11,RO,RONDONIA,-10.6140224,-62.7326412,"-10.6140224,-62.7326412",7767
1101104,ITAPUA DO OESTE,11,RO,RONDONIA,-9.1896460,-63.1910097,"-9.189646,-63.1910097",10458
1101203,MINISTRO ANDREAZZA,11,RO,RONDONIA,-11.1981045,-61.5167422,"-11.1981045,-61.5167422",9660
1101302,MIRANTE DA SERRA,11,RO,RONDONIA,-11.0321694,-62.6717012,"-11.0321694,-62.6717012",10947
1101401,MONTE NEGRO,11,RO,RONDONIA,-10.2603398,-63.2977025,"-10.2603398,-63.2977025",15852
1101435,NOVA UNIAO,11,RO,RONDONIA,-10.9159100,-62.5570096,"-10.91591,-62.5570096",6970
1101450,PARECIS,11,RO,RONDONIA,-12.1810712,-61.6037558,"-12.1810712,-61.6037558",6074
1101468,PIMENTEIRAS DO OESTE,11,RO,RONDONIA,-13.4822710,-61.0470520,"-13.482271,-61.047052",2169
1101476,PRIMAVERA DE RONDONIA,11,RO,RONDONIA,-11.8294560,-61.3153360,"-11.829456,-61.315336",2856
1101484,SAO FELIPE D'OESTE,11,RO,RONDONIA,-11.9107798,-61.5130058,"-11.9107798,-61.5130058",5172
1101492,SAO FRANCISCO DO GUAPORE,11,RO,RONDONIA,-12.0609982,-63.5668307,"-12.0609982,-63.5668307",20266
1101500,SERINGUEIRAS,11,RO,RONDONIA,-11.7715738,-63.0346835,"-11.7715738,-63.0346835",11856
1101559,TEIXEIROPOLIS,11,RO,RONDONIA,-10.9336967,-62.2560049,"-10.9336967,-62.2560049",4308
1101609,THEOBROMA,11,RO,RONDONIA,-10.2464890,-62.3493803,"-10.246489,-62.3493803",10444
1101708,URUPA,11,RO,RONDONIA,-11.1256535,-62.3704203,"-11.1256535,-62.3704203",11467
1101757,VALE DO ANARI,11,RO,RONDONIA,-9.8580807,-62.1741423,"-9.8580807,-62.1741423",11204
1101807,VALE DO PARAISO,11,RO,RONDONIA,-10.4266959,-62.1300904,"-10.4266959,-62.1300904",6825
1200013,ACRELANDIA,12,AC,ACRE,-10.0759167,-67.0526898,"-10.0759167,-67.0526898",15256
1200054,ASSIS BRASIL,12,AC,ACRE,-10.9409203,-69.5672108,"-10.9409203,-69.5672108",7417
1200104,BRASILEIA,12,AC,ACRE,-11.0010413,-68.7487894,"-11.0010413,-68.7487894",26278
1200138,BUJARI,12,AC,ACRE,-9.8309656,-67.9520886,"-9.8309656,-67.9520886",10266
1200179,CAPIXABA,12,AC,ACRE,-10.5741345,-67.6759719,"-10.5741345,-67.6759719",11733
1200203,CRUZEIRO DO SUL,12,AC,ACRE,-7.6307956,-72.6703869,"-7.6307956,-72.6703869",88376
1200252,EPITACIOLANDIA,12,AC,ACRE,-11.0289439,-68.7411519,"-11.0289439,-68.7411519",18411
1200302,FEIJO,12,AC,ACRE,-8.1648652,-70.3539579,"-8.1648652,-70.3539579",34780
1200328,JORDAO,12,AC,ACRE,-9.1911406,-71.9481397,"-9.1911406,-71.9481397",8317
1200336,MANCIO LIMA,12,AC,ACRE,-7.6145911,-72.9052640,"-7.6145911,-72.905264",18977
1200344,MANOEL URBANO,12,AC,ACRE,-8.8388610,-69.2620618,"-8.838861,-69.2620618",9459
1200351,MARECHAL THAUMATURGO,12,AC,ACRE,-8.9479792,-72.7872614,"-8.9479792,-72.7872614",18867
1200385,PLACIDO DE CASTRO,12,AC,ACRE,-10.3239154,-67.1824196,"-10.3239154,-67.1824196",19761
1200393,PORTO WALTER,12,AC,ACRE,-8.2687722,-72.7444458,"-8.2687722,-72.7444458",11982
1200401,RIO BRANCO,12,AC,ACRE,-9.9765362,-67.8220778,"-9.9765362,-67.8220778",407319
1200427,RODRIGUES ALVES,12,AC,ACRE,-7.7380283,-72.6509379,"-7.7380283,-72.6509379",18930
1200435,SANTA ROSA DO PURUS,12,AC,ACRE,-9.4354872,-70.4926109,"-9.4354872,-70.4926109",6540
1200450,SENADOR GUIOMARD,12,AC,ACRE,-10.1509190,-67.7359500,"-10.150919,-67.73595",23024
1200500,SENA MADUREIRA,12,AC,ACRE,-9.0659556,-68.6571058,"-9.0659556,-68.6571058",45848
1200609,TARAUACA,12,AC,ACRE,-8.1602019,-70.7665368,"-8.1602019,-70.7665368",42567
1200708,XAPURI,12,AC,ACRE,-10.6511174,-68.5017902,"-10.6511174,-68.5017902",19323
1200807,PORTO ACRE,12,AC,ACRE,-9.5879722,-67.5330700,"-9.5879722,-67.53307",18504
1300029,ALVARAES,13,AM,AMAZONAS,-3.2147860,-64.8143124,"-3.214786,-64.8143124",16041
1300060,AMATURA,13,AM,AMAZONAS,-3.3640509,-68.1994689,"-3.3640509,-68.1994689",11536
1300086,ANAMA,13,AM,AMAZONAS,-3.5797356,-61.4049996,"-3.5797356,-61.4049996",13614
1300102,ANORI,13,AM,AMAZONAS,-3.7435254,-61.6605203,"-3.7435254,-61.6605203",21010
1300144,APUI,13,AM,AMAZONAS,-1.9457717,-55.3518950,"-1.9457717,-55.351895",21973
1300201,ATALAIA DO NORTE,13,AM,AMAZONAS,-4.3658547,-70.1908742,"-4.3658547,-70.1908742",19921
1300300,AUTAZES,13,AM,AMAZONAS,-3.5833283,-59.1301518,"-3.5833283,-59.1301518",39565
1300409,BARCELOS,13,AM,AMAZONAS,-0.9729214,-62.9256350,"-0.9729214,-62.925635",27502
1300508,BARREIRINHA,13,AM,AMAZONAS,-2.5473740,-54.0853880,"-2.547374,-54.085388",32041
1300607,BENJAMIN CONSTANT,13,AM,AMAZONAS,-4.3782748,-70.0290603,"-4.3782748,-70.0290603",42984
1300631,BERURI,13,AM,AMAZONAS,-3.9007135,-61.3717319,"-3.9007135,-61.3717319",19679
1300680,BOA VISTA DO RAMOS,13,AM,AMAZONAS,-2.9716927,-57.5869819,"-2.9716927,-57.5869819",19207
1300706,BOCA DO ACRE,13,AM,AMAZONAS,-8.7553487,-67.3930873,"-8.7553487,-67.3930873",34308
1300805,BORBA,13,AM,AMAZONAS,-4.3934778,-59.5947721,"-4.3934778,-59.5947721",41161
1300839,CAAPIRANGA,13,AM,AMAZONAS,-3.3188884,-61.2096404,"-3.3188884,-61.2096404",13081
1300904,CANUTAMA,13,AM,AMAZONAS,-6.5330019,-64.3834966,"-6.5330019,-64.3834966",15629
1301001,CARAUARI,13,AM,AMAZONAS,-4.8766426,-66.8961433,"-4.8766426,-66.8961433",28294
1301100,CAREIRO,13,AM,AMAZONAS,-3.8185277,-60.3616505,"-3.8185277,-60.3616505",37869
1301159,CAREIRO DA VARZEA,13,AM,AMAZONAS,-3.1970240,-59.8259104,"-3.197024,-59.8259104",30225
1301209,COARI,13,AM,AMAZONAS,-4.0885957,-63.1431166,"-4.0885957,-63.1431166",85097
1301308,CODAJAS,13,AM,AMAZONAS,-3.8413202,-62.0603444,"-3.8413202,-62.0603444",28637
1301407,EIRUNEPE,13,AM,AMAZONAS,-6.6567654,-69.8661610,"-6.6567654,-69.866161",35273
1301506,ENVIRA,13,AM,AMAZONAS,-7.4378890,-70.0281430,"-7.437889,-70.028143",20033
1301605,FONTE BOA,13,AM,AMAZONAS,-2.5147464,-66.0948424,"-2.5147464,-66.0948424",17609
1301654,GUAJARA,13,AM,AMAZONAS,-2.2135550,-54.9826850,"-2.213555,-54.982685",16678
1301704,HUMAITA,13,AM,AMAZONAS,-8.2816722,-63.9366917,"-8.2816722,-63.9366917",55080
1301803,IPIXUNA,13,AM,AMAZONAS,-1.7958100,-55.0909150,"-1.79581,-55.090915",29689
1301852,IRANDUBA,13,AM,AMAZONAS,-3.2758203,-60.1867429,"-3.2758203,-60.1867429",48296
1301902,ITACOATIARA,13,AM,AMAZONAS,-3.1477898,-58.4461041,"-3.1477898,-58.4461041",101337
1301951,ITAMARATI,13,AM,AMAZONAS,-6.4385189,-68.2437385,"-6.4385189,-68.2437385",7851
1302009,ITAPIRANGA,13,AM,AMAZONAS,-2.7461205,-58.0253770,"-2.7461205,-58.025377",9148
1302108,JAPURA,13,AM,AMAZONAS,-7.1781505,-71.8538963,"-7.1781505,-71.8538963",2755
1302207,JURUA,13,AM,AMAZONAS,-3.4746666,-66.0622335,"-3.4746666,-66.0622335",14712
1302306,JUTAI,13,AM,AMAZONAS,-1.7201400,-66.8877467,"-1.72014,-66.8877467",14317
1302405,LABREA,13,AM,AMAZONAS,-7.2613683,-64.7924505,"-7.2613683,-64.7924505",46069
1302504,MANACAPURU,13,AM,AMAZONAS,-3.2996768,-60.6213528,"-3.2996768,-60.6213528",97377
1302553,MANAQUIRI,13,AM,AMAZONAS,-3.4305885,-60.4593078,"-3.4305885,-60.4593078",32105 (2)
1302603,MANAUS,13,AM,AMAZONAS,-3.1316333,-59.9825041,"-3.1316333,-59.9825041",2182763
1302702,MANICORE,13,AM,AMAZONAS,-5.8046180,-61.2894830,"-5.804618,-61.289483",55751
1302801,MARAA,13,AM,AMAZONAS,-1.8535579,-65.5897749,"-1.8535579,-65.5897749",18224
1302900,MAUES,13,AM,AMAZONAS,-3.3795798,-57.7196072,"-3.3795798,-57.7196072",63905
1303007,NHAMUNDA,13,AM,AMAZONAS,-2.1921521,-56.7111308,"-2.1921521,-56.7111308",21173
1303106,NOVA OLINDA DO NORTE,13,AM,AMAZONAS,-3.8926889,-59.0953046,"-3.8926889,-59.0953046",37378
1303205,NOVO AIRAO,13,AM,AMAZONAS,-2.6260236,-60.9434406,"-2.6260236,-60.9434406",19454
1303304,NOVO ARIPUANA,13,AM,AMAZONAS,-5.1259290,-60.3731790,"-5.125929,-60.373179",25644
1303403,PARINTINS,13,AM,AMAZONAS,-2.6344567,-56.7319324,"-2.6344567,-56.7319324",114273
1303502,PAUINI,13,AM,AMAZONAS,-7.7122214,-66.9998441,"-7.7122214,-66.9998441",19426
1303536,PRESIDENTE FIGUEIREDO,13,AM,AMAZONAS,-2.0486359,-60.0236658,"-2.0486359,-60.0236658",36279
1303569,RIO PRETO DA EVA,13,AM,AMAZONAS,-2.6990647,-59.7012494,"-2.6990647,-59.7012494",33347
1303601,SANTA ISABEL DO RIO NEGRO,13,AM,AMAZONAS,-0.4160389,-65.0153096,"-0.4160389,-65.0153096",25156 (3)
1303700,SANTO ANTONIO DO ICA,13,AM,AMAZONAS,-3.0954430,-67.9462790,"-3.095443,-67.946279",21602
1303809,SAO GABRIEL DA CACHOEIRA,13,AM,AMAZONAS,-0.1249715,-67.0813855,"-0.1249715,-67.0813855",45564
1303908,SAO PAULO DE OLIVENCA,13,AM,AMAZONAS,-3.4650627,-68.9468462,"-3.4650627,-68.9468462",39299
1303957,SAO SEBASTIAO DO UATUMA,13,AM,AMAZONAS,-2.5719341,-57.8703616,"-2.5719341,-57.8703616",14020
1304005,SILVES,13,AM,AMAZONAS,-2.8372614,-58.2105199,"-2.8372614,-58.2105199",9171
1304062,TABATINGA,13,AM,AMAZONAS,-2.2542498,-55.7801216,"-2.2542498,-55.7801216",65844
1304104,TAPAUA,13,AM,AMAZONAS,-5.6232283,-63.1879157,"-5.6232283,-63.1879157",17156
1304203,TEFE,13,AM,AMAZONAS,-3.3485276,-64.7102278,"-3.3485276,-64.7102278",59849
1304237,TONANTINS,13,AM,AMAZONAS,-2.8626100,-67.7735482,"-2.86261,-67.7735482",18755
1304260,UARINI,13,AM,AMAZONAS,-2.9827061,-65.1578615,"-2.9827061,-65.1578615",13540
1304302,URUCARA,13,AM,AMAZONAS,-2.5370730,-57.7590254,"-2.537073,-57.7590254",16256 (4)
1304401,URUCURITUBA,13,AM,AMAZONAS,-3.1304332,-58.1549157,"-3.1304332,-58.1549157",23065
1400027,AMAJARI,14,RR,RORAIMA,3.6523869,-61.4194315,"3.6523869,-61.4194315",12796
1400050,ALTO ALEGRE,14,RR,RORAIMA,2.9885800,-61.3071670,"2.98858,-61.307167",15510
1400100,BOA VISTA,14,RR,RORAIMA,2.8208478,-60.6719582,"2.8208478,-60.6719582",399213
1400159,BONFIM,14,RR,RORAIMA,3.3613818,-59.8427241,"3.3613818,-59.8427241",12409
1400175,CANTA,14,RR,RORAIMA,2.6099400,-60.6058270,"2.60994,-60.605827",18335
1400209,CARACARAI,14,RR,RORAIMA,3.4843637,-60.7897622,"3.4843637,-60.7897622",21926
1400233,CAROEBE,14,RR,RORAIMA,0.8812315,-59.6932274,"0.8812315,-59.6932274",10169
1400282,IRACEMA,14,RR,RORAIMA,2.1664742,-61.0513048,"2.1664742,-61.0513048",11950
1400308,MUCAJAI,14,RR,RORAIMA,2.4486084,-60.9199986,"2.4486084,-60.9199986",17853
1400407,NORMANDIA,14,RR,RORAIMA,3.8792356,-59.6293367,"3.8792356,-59.6293367",11290
1400456,PACARAIMA,14,RR,RORAIMA,4.4791253,-61.1471016,"4.4791253,-61.1471016",17401
1400472,RORAINOPOLIS,14,RR,RORAIMA,0.9387308,-60.4236464,"0.9387308,-60.4236464",30163
1400506,SAO JOAO DA BALIZA,14,RR,RORAIMA,0.9516590,-59.9132930,"0.951659,-59.913293",8201
1400605,SAO LUIZ,14,RR,RORAIMA,1.0170607,-60.0371719,"1.0170607,-60.0371719",7986
1400704,UIRAMUTA,14,RR,RORAIMA,4.5953692,-60.1598862,"4.5953692,-60.1598862",10559
1500107,ABAETETUBA,15,PA,PARA,-1.7218280,-48.8788430,"-1.721828,-48.878843",157698
1500131,ABEL FIGUEIREDO,15,PA,PARA,-4.9530010,-48.3958485,"-4.953001,-48.3958485",7434
1500206,ACARA,15,PA,PARA,-1.9613880,-48.1987043,"-1.961388,-48.1987043",55591
1500305,AFUA,15,PA,PARA,-0.1535664,-50.3879223,"-0.1535664,-50.3879223",39218
1500347,AGUA AZUL DO NORTE,15,PA,PARA,-6.8064885,-50.4849667,"-6.8064885,-50.4849667",27430
1500404,ALENQUER,15,PA,PARA,-1.9462290,-54.7383550,"-1.946229,-54.738355",56789
1500503,ALMEIRIM,15,PA,PARA,-1.5290377,-52.5788111,"-1.5290377,-52.5788111",34109
1500602,ALTAMIRA,15,PA,PARA,-3.2040650,-52.2099610,"-3.204065,-52.209961",114594
1500701,ANAJAS,15,PA,PARA,-0.9878802,-49.9390114,"-0.9878802,-49.9390114",29277
1500800,ANANINDEUA,15,PA,PARA,-1.3740350,-48.4016623,"-1.374035,-48.4016623",530598
1500859,ANAPU,15,PA,PARA,-3.4668292,-51.2057035,"-3.4668292,-51.2057035",27890
1500909,AUGUSTO CORREA,15,PA,PARA,-1.0229335,-46.6404029,"-1.0229335,-46.6404029",45998
1500958,AURORA DO PARA,15,PA,PARA,-2.1323199,-47.5584360,"-2.1323199,-47.558436",31338
1501006,AVEIRO,15,PA,PARA,-3.6049239,-55.3310742,"-3.6049239,-55.3310742",16388
1501105,BAGRE,15,PA,PARA,-1.8994498,-50.2103844,"-1.8994498,-50.2103844",30673
1501204,BAIAO,15,PA,PARA,-2.7903479,-49.6702845,"-2.7903479,-49.6702845",47446
1501253,BANNACH,15,PA,PARA,-7.3508505,-50.4064531,"-7.3508505,-50.4064531",3286
1501303,BARCARENA,15,PA,PARA,-1.5107945,-48.6190679,"-1.5107945,-48.6190679",124680
1501402,BELEM,15,PA,PARA,-4.9041167,-49.3631967,"-4.9041167,-49.3631967",1492745
1501451,BELTERRA,15,PA,PARA,-2.6360910,-54.9373920,"-2.636091,-54.937392",17732
1501501,BENEVIDES,15,PA,PARA,-2.0269350,-47.7559317,"-2.026935,-47.7559317",62737
1501576,BOM JESUS DO TOCANTINS,15,PA,PARA,-5.0471796,-48.5978362,"-5.0471796,-48.5978362",16981
1501600,BONITO,15,PA,PARA,-1.3605722,-47.3049907,"-1.3605722,-47.3049907",16286
1501709,BRAGANCA,15,PA,PARA,-1.0573967,-46.7635406,"-1.0573967,-46.7635406",127686
1501725,BRASIL NOVO,15,PA,PARA,-3.3055853,-52.5391980,"-3.3055853,-52.539198",15086
1501758,BREJO GRANDE DO ARAGUAIA,15,PA,PARA,-5.7011449,-48.4037308,"-5.7011449,-48.4037308",7380
1501782,BREU BRANCO,15,PA,PARA,-3.7785073,-49.5684795,"-3.7785073,-49.5684795",66046
1501808,BREVES,15,PA,PARA,-1.6803600,-50.4790850,"-1.68036,-50.479085",102701
1501907,BUJARU,15,PA,PARA,-1.7923550,-48.0499717,"-1.792355,-48.0499717",29132
1501956,CACHOEIRA DO PIRIA,15,PA,PARA,-1.7599443,-46.5446954,"-1.7599443,-46.5446954",33900
1502004,CACHOEIRA DO ARARI,15,PA,PARA,-1.0143572,-48.9621089,"-1.0143572,-48.9621089",23767
1502103,CAMETA,15,PA,PARA,-2.2429490,-49.4978850,"-2.242949,-49.497885",137890
1502152,CANAA DOS CARAJAS,15,PA,PARA,-6.5296837,-49.8516592,"-6.5296837,-49.8516592",37085
1502202,CAPANEMA,15,PA,PARA,-1.1933054,-47.1828679,"-1.1933054,-47.1828679",69027
1502301,CAPITAO POCO,15,PA,PARA,-1.7447162,-47.0638495,"-1.7447162,-47.0638495",54303
1502400,CASTANHAL,15,PA,PARA,-1.9513852,-49.4278722,"-1.9513852,-49.4278722",200793
1502509,CHAVES,15,PA,PARA,-0.1641540,-49.9870060,"-0.164154,-49.987006",23717
1502608,COLARES,15,PA,PARA,-0.9364230,-48.2802540,"-0.936423,-48.280254",12085
1502707,CONCEICAO DO ARAGUAIA,15,PA,PARA,-8.2696905,-49.2676864,"-8.2696905,-49.2676864",47864
1502756,CONCORDIA DO PARA,15,PA,PARA,-1.9924056,-47.9450474,"-1.9924056,-47.9450474",33318
1502764,CUMARU DO NORTE,15,PA,PARA,-7.8122669,-50.7677675,"-7.8122669,-50.7677675",13473
1502772,CURIONOPOLIS,15,PA,PARA,-6.0990443,-49.6059039,"-6.0990443,-49.6059039",17929
1502806,CURRALINHO,15,PA,PARA,-1.8137876,-49.7980165,"-1.8137876,-49.7980165",34448
1502855,CURUA,15,PA,PARA,-5.6168220,-55.7936250,"-5.616822,-55.793625",14393
1502905,CURUCA,15,PA,PARA,-0.7276792,-47.8565680,"-0.7276792,-47.856568",40066
1502939,DOM ELISEU,15,PA,PARA,-4.2928111,-47.5559083,"-4.2928111,-47.5559083",59719
1502954,ELDORADO DO CARAJAS,15,PA,PARA,-6.1029246,-49.3572487,"-6.1029246,-49.3572487",33808
1503002,FARO,15,PA,PARA,-2.1737325,-56.7461191,"-2.1737325,-56.7461191",7194
1503044,FLORESTA DO ARAGUAIA,15,PA,PARA,-7.5597065,-49.7032829,"-7.5597065,-49.7032829",20304
1503077,GARRAFAO DO NORTE,15,PA,PARA,-1.9282256,-47.0513157,"-1.9282256,-47.0513157",26066
1503093,GOIANESIA DO PARA,15,PA,PARA,-3.8380998,-49.0977992,"-3.8380998,-49.0977992",40475
1503101,GURUPA,15,PA,PARA,-1.1521167,-48.7985767,"-1.1521167,-48.7985767",33376
1503200,IGARAPE-ACU,15,PA,PARA,-3.7555017,-55.5406000,"-3.7555017,-55.5406",38807
1503309,IGARAPE-MIRI,15,PA,PARA,-1.9785213,-48.9634826,"-1.9785213,-48.9634826",62698
1503408,INHANGAPI,15,PA,PARA,-1.3211387,-47.6754927,"-1.3211387,-47.6754927",11711
1503457,IPIXUNA DO PARA,15,PA,PARA,-2.5592139,-47.4965462,"-2.5592139,-47.4965462",64053
1503507,IRITUIA,15,PA,PARA,-1.7709543,-47.4399687,"-1.7709543,-47.4399687",32550
1503606,ITAITUBA,15,PA,PARA,-4.2625218,-55.9878139,"-4.2625218,-55.9878139",101247
1503705,ITUPIRANGA,15,PA,PARA,-5.1337224,-49.3321988,"-5.1337224,-49.3321988",53269
1503754,JACAREACANGA,15,PA,PARA,-6.2196518,-57.7586250,"-6.2196518,-57.758625",8239 (5)
1503804,JACUNDA,15,PA,PARA,-4.4461730,-49.1152720,"-4.446173,-49.115272",59155
1503903,JURUTI,15,PA,PARA,-2.1571381,-56.0900977,"-2.1571381,-56.0900977",57943
1504000,LIMOEIRO DO AJURU,15,PA,PARA,-1.8958813,-49.3828438,"-1.8958813,-49.3828438",28935
1504059,MAE DO RIO,15,PA,PARA,-2.0458692,-47.5522076,"-2.0458692,-47.5522076",30077
1504109,MAGALHAES BARATA,15,PA,PARA,-0.7943378,-47.5984382,"-0.7943378,-47.5984382",8548
1504208,MARABA,15,PA,PARA,-5.3462821,-49.1007401,"-5.3462821,-49.1007401",279349
1504307,MARACANA,15,PA,PARA,-0.7666582,-47.4537818,"-0.7666582,-47.4537818",29473
1504406,MARAPANIM,15,PA,PARA,-0.7134493,-47.6985381,"-0.7134493,-47.6985381",28336
1504422,MARITUBA,15,PA,PARA,-1.3595306,-48.3361504,"-1.3595306,-48.3361504",131521
1504455,MEDICILANDIA,15,PA,PARA,-3.4438388,-52.8889236,"-3.4438388,-52.8889236",31597
1504505,MELGACO,15,PA,PARA,-1.8032020,-50.7149270,"-1.803202,-50.714927",27654
1504604,MOCAJUBA,15,PA,PARA,-2.5830980,-49.5042240,"-2.583098,-49.504224",31136
1504703,MOJU,15,PA,PARA,-1.8899260,-48.7667650,"-1.889926,-48.766765",82094
1504752,MOJUI DOS CAMPOS,15,PA,PARA,-2.6821670,-54.6427170,"-2.682167,-54.642717",16084
1504802,MONTE ALEGRE,15,PA,PARA,-4.2236567,-55.1146700,"-4.2236567,-55.11467",58032
1504901,MUANA,15,PA,PARA,-1.5317443,-49.2223565,"-1.5317443,-49.2223565",40349
1504950,NOVA ESPERANCA DO PIRIA,15,PA,PARA,-2.2663093,-46.9661622,"-2.2663093,-46.9661622",21368
1504976,NOVA IPIXUNA,15,PA,PARA,-4.9162210,-49.0821940,"-4.916221,-49.082194",16678
1505007,NOVA TIMBOTEUA,15,PA,PARA,-1.2052428,-47.3935775,"-1.2052428,-47.3935775",15363
1505031,NOVO PROGRESSO,15,PA,PARA,-7.0374884,-55.4185904,"-7.0374884,-55.4185904",25762
1505064,NOVO REPARTIMENTO,15,PA,PARA,-4.2519172,-49.9524257,"-4.2519172,-49.9524257",75919
1505106,OBIDOS,15,PA,PARA,-1.9010720,-55.5208120,"-1.901072,-55.520812",52137
1505205,OEIRAS DO PARA,15,PA,PARA,-2.0040813,-49.8596065,"-2.0040813,-49.8596065",32512
1505304,ORIXIMINA,15,PA,PARA,-1.7669992,-55.8682850,"-1.7669992,-55.868285",73096
1505403,OUREM,15,PA,PARA,-1.5489964,-47.1174572,"-1.5489964,-47.1174572",17842
1505437,OURILANDIA DO NORTE,15,PA,PARA,-6.7489750,-51.0788476,"-6.748975,-51.0788476",32832
1505486,PACAJA,15,PA,PARA,-2.2052417,-49.4779867,"-2.2052417,-49.4779867",47706
1505494,PALESTINA DO PARA,15,PA,PARA,-5.7423938,-48.3185533,"-5.7423938,-48.3185533",7589
1505502,PARAGOMINAS,15,PA,PARA,-2.9956400,-47.3548942,"-2.99564,-47.3548942",113145
1505536,PARAUAPEBAS,15,PA,PARA,-6.0696846,-49.8903283,"-6.0696846,-49.8903283",208273
1505551,PAU D'ARCO,15,PA,PARA,-7.8331153,-50.0404438,"-7.8331153,-50.0404438",5483
1505601,PEIXE-BOI,15,PA,PARA,-1.1938240,-47.3240310,"-1.193824,-47.324031",8077
1505635,PICARRA,15,PA,PARA,-6.4475822,-48.8633795,"-6.4475822,-48.8633795",12981
1505650,PLACAS,15,PA,PARA,-3.9971440,-49.5104765,"-3.997144,-49.5104765",30982
1505700,PONTA DE PEDRAS,15,PA,PARA,-5.4378983,-48.5112217,"-5.4378983,-48.5112217",31082
1505809,PORTEL,15,PA,PARA,-1.9387118,-50.8240402,"-1.9387118,-50.8240402",62043
1505908,PORTO DE MOZ,15,PA,PARA,-1.7502089,-52.2355560,"-1.7502089,-52.235556",41135
1506005,PRAINHA,15,PA,PARA,-1.6256917,-47.8091983,"-1.6256917,-47.8091983",29866
1506104,PRIMAVERA,15,PA,PARA,-0.9406522,-47.1167280,"-0.9406522,-47.116728",10825
1506112,QUATIPURU,15,PA,PARA,-0.8948725,-47.0049317,"-0.8948725,-47.0049317",13608
1506138,REDENCAO,15,PA,PARA,-8.0252940,-50.0316870,"-8.025294,-50.031687",84787
1506161,RIO MARIA,15,PA,PARA,-7.3137312,-50.0465372,"-7.3137312,-50.0465372",18193
1506187,RONDON DO PARA,15,PA,PARA,-4.7804416,-48.0698300,"-4.7804416,-48.06983",52357
1506195,RUROPOLIS,15,PA,PARA,-4.1014311,-54.9086853,"-4.1014311,-54.9086853",50510
1506203,SALINOPOLIS,15,PA,PARA,-0.6259282,-47.3442819,"-0.6259282,-47.3442819",40675
1506302,SALVATERRA,15,PA,PARA,-0.7584440,-48.5139210,"-0.758444,-48.513921",23752
1506351,SANTA BARBARA DO PARA,15,PA,PARA,-1.2261440,-48.2951010,"-1.226144,-48.295101",21079
1506401,SANTA CRUZ DO ARARI,15,PA,PARA,-0.6610190,-49.1771390,"-0.661019,-49.177139",10128
1506500,SANTA IZABEL DO PARA,15,PA,PARA,-1.3667337,-48.1290740,"-1.36673365,-48.1290740056134",70801
1506559,SANTA LUZIA DO PARA,15,PA,PARA,-1.5220049,-46.9020697,"-1.5220049,-46.9020697",19848
1506583,SANTA MARIA DAS BARREIRAS,15,PA,PARA,-8.8710157,-49.7171263,"-8.8710157,-49.7171263",21449
1506609,SANTA MARIA DO PARA,15,PA,PARA,-1.3455478,-47.5782981,"-1.3455478,-47.5782981",24861
1506708,SANTANA DO ARAGUAIA,15,PA,PARA,-9.3348334,-50.3427734,"-9.3348334,-50.3427734",72817
1506807,SANTAREM,15,PA,PARA,0.6211333,-50.0900083,"0.6211333,-50.0900083",304589
1506906,SANTAREM NOVO,15,PA,PARA,-0.9283904,-47.3999958,"-0.9283904,-47.3999958",6709
1507003,SANTO ANTONIO DO TAUA,15,PA,PARA,-1.1522000,-48.1314460,"-1.1522,-48.131446",31482
1507102,SAO CAETANO DE ODIVELAS,15,PA,PARA,-0.7472930,-48.0246220,"-0.747293,-48.024622",18050
1507151,SAO DOMINGOS DO ARAGUAIA,15,PA,PARA,-5.5416409,-48.7291003,"-5.5416409,-48.7291003",25557
1507201,SAO DOMINGOS DO CAPIM,15,PA,PARA,-1.6789331,-47.7717815,"-1.6789331,-47.7717815",31989
1507300,SAO FELIX DO XINGU,15,PA,PARA,-6.6386974,-51.9787582,"-6.6386974,-51.9787582",128481
1507409,SAO FRANCISCO DO PARA,15,PA,PARA,-1.1694464,-47.7974079,"-1.1694464,-47.7974079",15882
1507458,SAO GERALDO DO ARAGUAIA,15,PA,PARA,-6.3947150,-48.5591690,"-6.394715,-48.559169",24847
1507466,SAO JOAO DA PONTA,15,PA,PARA,-0.8526516,-47.9224095,"-0.8526516,-47.9224095",6139
1507474,SAO JOAO DE PIRABAS,15,PA,PARA,-0.7733201,-47.1770631,"-0.7733201,-47.1770631",23045
1507508,SAO JOAO DO ARAGUAIA,15,PA,PARA,-5.3617017,-48.7911109,"-5.3617017,-48.7911109",13996
1507607,SAO MIGUEL DO GUAMA,15,PA,PARA,-1.6116804,-47.4757551,"-1.6116804,-47.4757551",58986
1507706,SAO SEBASTIAO DA BOA VISTA,15,PA,PARA,-1.7182884,-49.5319955,"-1.7182884,-49.5319955",26640
1507755,SAPUCAIA,15,PA,PARA,-6.9413500,-49.6993876,"-6.94135,-49.6993876",5930
1507805,SENADOR JOSE PORFIRIO,15,PA,PARA,-2.5935424,-51.9482090,"-2.5935424,-51.948209",11658
1507904,SOURE,15,PA,PARA,-0.7275759,-48.5189785,"-0.7275759,-48.5189785",25374
1507953,TAILANDIA,15,PA,PARA,-2.9360960,-48.9523366,"-2.936096,-48.9523366",106339
1507961,TERRA ALTA,15,PA,PARA,-1.0397924,-47.9091595,"-1.0397924,-47.9091595",11720
1507979,TERRA SANTA,15,PA,PARA,-3.7705230,-56.5419490,"-3.770523,-56.541949",18769
1508001,TOME-ACU,15,PA,PARA,-2.4166306,-48.1522907,"-2.4166306,-48.1522907",63447
1508035,TRACUATEUA,15,PA,PARA,-1.0765338,-46.9030822,"-1.0765338,-46.9030822",30959
1508050,TRAIRAO,15,PA,PARA,-4.7005510,-55.9972165,"-4.700551,-55.9972165",18989
1508084,TUCUMA,15,PA,PARA,-6.7517239,-51.1507941,"-6.7517239,-51.1507941",39602
1508100,TUCURUI,15,PA,PARA,-3.7738509,-49.6708204,"-3.7738509,-49.6708204",113659
1508126,ULIANOPOLIS,15,PA,PARA,-3.7575266,-47.5009377,"-3.7575266,-47.5009377",59210
1508159,URUARA,15,PA,PARA,-3.7185381,-53.7385490,"-3.7185381,-53.738549",45476
1508209,VIGIA,15,PA,PARA,-0.8546027,-48.1432873,"-0.8546027,-48.1432873",53686
1508308,VISEU,15,PA,PARA,-1.2048920,-46.1392244,"-1.204892,-46.1392244",61403
1508357,VITORIA DO XINGU,15,PA,PARA,-2.8833063,-52.0114889,"-2.8833063,-52.0114889",15134
1508407,XINGUARA,15,PA,PARA,-7.0998514,-49.9416632,"-7.0998514,-49.9416632",44751
1600055,SERRA DO NAVIO,16,AP,AMAPA,0.8991593,-52.0027191,"0.8991593,-52.0027191",5397
1600105,AMAPA,16,AP,AMAPA,2.0529997,-50.7930003,"2.0529997,-50.7930003",9109
1600154,PEDRA BRANCA DO AMAPARI,16,AP,AMAPA,0.7771833,-51.9523218,"0.7771833,-51.9523218",16502
1600204,CALCOENE,16,AP,AMAPA,2.4981757,-50.9539503,"2.4981757,-50.9539503",11117
1600212,CUTIAS,16,AP,AMAPA,0.9708625,-50.8000608,"0.9708625,-50.8000608",5983
1600238,FERREIRA GOMES,16,AP,AMAPA,0.8580838,-51.1814000,"0.8580838,-51.1814",7780
1600253,ITAUBAL,16,AP,AMAPA,0.6027524,-50.6998737,"0.6027524,-50.6998737",5503
1600279,LARANJAL DO JARI,16,AP,AMAPA,-0.8419994,-52.5160000,"-0.8419994,-52.516",50410
1600303,MACAPA,16,AP,AMAPA,0.0401529,-51.0569588,"0.0401529,-51.0569588",503327
1600402,MAZAGAO,16,AP,AMAPA,-0.1160565,-51.2861759,"-0.1160565,-51.2861759",21632
1600501,OIAPOQUE,16,AP,AMAPA,3.8432128,-51.8350798,"3.8432128,-51.8350798",27270
1600535,PORTO GRANDE,16,AP,AMAPA,0.7028371,-51.4041605,"0.7028371,-51.4041605",21971
1600550,PRACUUBA,16,AP,AMAPA,1.7429041,-50.7848832,"1.7429041,-50.7848832",5120
1600600,SANTANA,16,AP,AMAPA,-0.0307068,-51.1789666,"-0.0307068,-51.1789666",121364
1600709,TARTARUGALZINHO,16,AP,AMAPA,1.5060000,-50.9119997,"1.506,-50.9119997",17315
1600808,VITORIA DO JARI,16,AP,AMAPA,-0.9310733,-52.4241059,"-0.9310733,-52.4241059",15931
1700251,ABREULANDIA,17,TO,TOCANTINS,-9.6221526,-49.1558343,"-9.6221526,-49.1558343",2579
1700301,AGUIARNOPOLIS,17,TO,TOCANTINS,-6.5600452,-47.4721189,"-6.5600452,-47.4721189",6733
1700350,ALIANCA DO TOCANTINS,17,TO,TOCANTINS,-11.3055927,-48.9409096,"-11.3055927,-48.9409096",5390
1700400,ALMAS,17,TO,TOCANTINS,-11.5681309,-47.1702803,"-11.5681309,-47.1702803",7055
1700707,ALVORADA,17,TO,TOCANTINS,-12.4784650,-49.1249260,"-12.478465,-49.124926",8412
1701002,ANANAS,17,TO,TOCANTINS,-6.3663053,-48.0802380,"-6.3663053,-48.080238",9549
1701051,ANGICO,17,TO,TOCANTINS,-6.3893733,-47.8656722,"-6.3893733,-47.8656722",3433
1701101,APARECIDA DO RIO NEGRO,17,TO,TOCANTINS,-9.9513491,-47.9773786,"-9.9513491,-47.9773786",4795
1701309,ARAGOMINAS,17,TO,TOCANTINS,-7.1654101,-48.5254880,"-7.1654101,-48.525488",5758
1701903,ARAGUACEMA,17,TO,TOCANTINS,-8.8067391,-49.5560969,"-8.8067391,-49.5560969",7086
1702000,ARAGUACU,17,TO,TOCANTINS,-12.9289340,-49.8231340,"-12.928934,-49.823134",8517
1702109,ARAGUAINA,17,TO,TOCANTINS,-7.1932410,-48.2018597,"-7.193241,-48.2018597",180470
1702158,ARAGUANA,17,TO,TOCANTINS,-6.5799107,-48.6428482,"-6.5799107,-48.6428482",5729
1702208,ARAGUATINS,17,TO,TOCANTINS,-5.6522925,-48.1158973,"-5.6522925,-48.1158973",35761
1702307,ARAPOEMA,17,TO,TOCANTINS,-7.6575001,-49.0641484,"-7.6575001,-49.0641484",6643
1702406,ARRAIAS,17,TO,TOCANTINS,-12.9287788,-46.9437231,"-12.9287788,-46.9437231",10567
1702554,AUGUSTINOPOLIS,17,TO,TOCANTINS,-5.4662267,-47.8897519,"-5.4662267,-47.8897519",18412
1702703,AURORA DO TOCANTINS,17,TO,TOCANTINS,-12.7104500,-46.4076040,"-12.71045,-46.407604",3757
1702901,AXIXA DO TOCANTINS,17,TO,TOCANTINS,-5.6127470,-47.7700700,"-5.612747,-47.77007",9756
1703008,BABACULANDIA,17,TO,TOCANTINS,-7.2034355,-47.7616130,"-7.2034355,-47.761613",10664
1703057,BANDEIRANTES DO TOCANTINS,17,TO,TOCANTINS,-7.7635698,-48.5791480,"-7.7635698,-48.579148",3553
1703073,BARRA DO OURO,17,TO,TOCANTINS,-7.7113784,-47.6743925,"-7.7113784,-47.6743925",4591
1703107,BARROLANDIA,17,TO,TOCANTINS,-9.8372460,-48.7264346,"-9.837246,-48.7264346",5632
1703206,BERNARDO SAYAO,17,TO,TOCANTINS,-7.8794244,-48.8968905,"-7.8794244,-48.8968905",4459
1703305,BOM JESUS DO TOCANTINS,17,TO,TOCANTINS,-8.9630600,-48.1650430,"-8.96306,-48.165043",4894
1703602,BRASILANDIA DO TOCANTINS,17,TO,TOCANTINS,-8.3886619,-48.4842729,"-8.3886619,-48.4842729",2201
1703701,BREJINHO DE NAZARE,17,TO,TOCANTINS,-11.0205883,-48.5722906,"-11.0205883,-48.5722906",5497
1703800,BURITI DO TOCANTINS,17,TO,TOCANTINS,-5.3187439,-48.2256609,"-5.3187439,-48.2256609",11348
1703826,CACHOEIRINHA,17,TO,TOCANTINS,-6.1186470,-47.9208885,"-6.118647,-47.9208885",2275
1703842,CAMPOS LINDOS,17,TO,TOCANTINS,-7.9740597,-46.8023881,"-7.9740597,-46.8023881",10116
1703867,CARIRI DO TOCANTINS,17,TO,TOCANTINS,-11.8882727,-49.1604216,"-11.8882727,-49.1604216",4382
1703883,CARMOLANDIA,17,TO,TOCANTINS,-7.0338040,-48.3951295,"-7.033804,-48.3951295",2580
1703891,CARRASCO BONITO,17,TO,TOCANTINS,-5.3205734,-48.0376667,"-5.3205734,-48.0376667",4095
1703909,CASEARA,17,TO,TOCANTINS,-9.2731590,-49.9576837,"-9.273159,-49.9576837",5369
1704105,CENTENARIO,17,TO,TOCANTINS,-8.9586893,-47.3355181,"-8.9586893,-47.3355181",2905
1704600,CHAPADA DE AREIA,17,TO,TOCANTINS,-10.1409456,-49.1783677,"-10.1409456,-49.1783677",1406
1705102,CHAPADA DA NATIVIDADE,17,TO,TOCANTINS,-11.6119239,-47.7538517,"-11.6119239,-47.7538517",3333
1705508,COLINAS DO TOCANTINS,17,TO,TOCANTINS,-8.0612688,-48.4716768,"-8.0612688,-48.4716768",35424
1705557,COMBINADO,17,TO,TOCANTINS,-12.8136581,-46.5461041,"-12.8136581,-46.5461041",4852
1705607,CONCEICAO DO TOCANTINS,17,TO,TOCANTINS,-12.2208740,-47.2951030,"-12.220874,-47.295103",4105
1706001,COUTO MAGALHAES,17,TO,TOCANTINS,-8.3605830,-49.1773955,"-8.360583,-49.1773955",5588
1706100,CRISTALANDIA,17,TO,TOCANTINS,-10.5984800,-49.1942020,"-10.59848,-49.194202",7289
1706258,CRIXAS DO TOCANTINS,17,TO,TOCANTINS,-11.1039404,-48.9188270,"-11.1039404,-48.918827",1722
1706506,DARCINOPOLIS,17,TO,TOCANTINS,-6.7085964,-47.7524283,"-6.7085964,-47.7524283",6097
1707009,DIANOPOLIS,17,TO,TOCANTINS,-11.6240080,-46.8197870,"-11.624008,-46.819787",22139
1707108,DIVINOPOLIS DO TOCANTINS,17,TO,TOCANTINS,-9.8015722,-49.2143531,"-9.8015722,-49.2143531",6900
1707207,DOIS IRMAOS DO TOCANTINS,17,TO,TOCANTINS,-9.2539897,-49.0665558,"-9.2539897,-49.0665558",7198
1707306,DUERE,17,TO,TOCANTINS,-11.3416310,-49.2715660,"-11.341631,-49.271566",4686
1707405,ESPERANTINA,17,TO,TOCANTINS,-5.3658232,-48.5368181,"-5.3658232,-48.5368181",10996
1707553,FATIMA,17,TO,TOCANTINS,-10.7575656,-48.9031328,"-10.7575656,-48.9031328",3835
1707652,FIGUEIROPOLIS,17,TO,TOCANTINS,-12.1347916,-49.1737141,"-12.1347916,-49.1737141",5263
1707702,FILADELFIA,17,TO,TOCANTINS,-7.3395833,-47.4963720,"-7.3395833,-47.496372",8856
1708205,FORMOSO DO ARAGUAIA,17,TO,TOCANTINS,-11.8059989,-49.5257153,"-11.8059989,-49.5257153",18440
1708254,FORTALEZA DO TABOCAO,17,TO,TOCANTINS,-9.0565211,-48.5216745,"-9.0565211,-48.5216745",2589
1708304,GOIANORTE,17,TO,TOCANTINS,-8.7720092,-48.9340879,"-8.7720092,-48.9340879",5123
1709005,GOIATINS,17,TO,TOCANTINS,-7.7132054,-47.3154841,"-7.7132054,-47.3154841",13019
1709302,GUARAI,17,TO,TOCANTINS,-8.8354290,-48.5114320,"-8.835429,-48.511432",25923
1709500,GURUPI,17,TO,TOCANTINS,-11.7279400,-49.0680460,"-11.72794,-49.068046",86647
1709807,IPUEIRAS,17,TO,TOCANTINS,-11.2408008,-48.4438878,"-11.2408008,-48.4438878",2015
1710508,ITACAJA,17,TO,TOCANTINS,-8.3929350,-47.7726150,"-8.392935,-47.772615",7433
1710706,ITAGUATINS,17,TO,TOCANTINS,-5.7696766,-47.4815382,"-5.7696766,-47.4815382",5864
1710904,ITAPIRATINS,17,TO,TOCANTINS,-8.3832116,-48.1054968,"-8.3832116,-48.1054968",3777
1711100,ITAPORA DO TOCANTINS,17,TO,TOCANTINS,-8.5717220,-48.6894810,"-8.571722,-48.689481",2427
1711506,JAU DO TOCANTINS,17,TO,TOCANTINS,-12.6526649,-48.5922532,"-12.6526649,-48.5922532",3849
1711803,JUARINA,17,TO,TOCANTINS,-8.1194209,-49.0967459,"-8.1194209,-49.0967459",2193
1711902,LAGOA DA CONFUSAO,17,TO,TOCANTINS,-10.7883045,-49.6224431,"-10.7883045,-49.6224431",13357
1711951,LAGOA DO TOCANTINS,17,TO,TOCANTINS,-10.2967881,-47.5662530,"-10.2967881,-47.566253",4316
1712009,LAJEADO,17,TO,TOCANTINS,-9.7548945,-48.3563706,"-9.7548945,-48.3563706",3134
1712157,LAVANDEIRA,17,TO,TOCANTINS,-12.7887924,-46.5073198,"-12.7887924,-46.5073198",1923
1712405,LIZARDA,17,TO,TOCANTINS,-9.5955336,-46.6752180,"-9.5955336,-46.675218",3740
1712454,LUZINOPOLIS,17,TO,TOCANTINS,-6.1918183,-47.8562036,"-6.1918183,-47.8562036",3108
1712504,MARIANOPOLIS DO TOCANTINS,17,TO,TOCANTINS,-9.7962503,-49.6547174,"-9.7962503,-49.6547174",5175
1712702,MATEIROS,17,TO,TOCANTINS,-10.5462254,-46.4174230,"-10.5462254,-46.417423",2684
1712801,MAURILANDIA DO TOCANTINS,17,TO,TOCANTINS,-5.9516880,-47.5124920,"-5.951688,-47.512492",3426
1713205,MIRACEMA DO TOCANTINS,17,TO,TOCANTINS,-9.5617939,-48.3966536,"-9.5617939,-48.3966536",18248
1713304,MIRANORTE,17,TO,TOCANTINS,-9.5290680,-48.5922220,"-9.529068,-48.592222",13434
1713601,MONTE DO CARMO,17,TO,TOCANTINS,-10.7647456,-48.1121813,"-10.7647456,-48.1121813",7947
1713700,MONTE SANTO DO TOCANTINS,17,TO,TOCANTINS,-10.0051944,-48.9927531,"-10.0051944,-48.9927531",2279
1713809,PALMEIRAS DO TOCANTINS,17,TO,TOCANTINS,-6.6103628,-47.5468282,"-6.6103628,-47.5468282",6658
1713957,MURICILANDIA,17,TO,TOCANTINS,-7.1466900,-48.6091350,"-7.14669,-48.609135",3551
1714203,NATIVIDADE,17,TO,TOCANTINS,-11.7089881,-47.7284165,"-11.7089881,-47.7284165",9244
1714302,NAZARE,17,TO,TOCANTINS,-6.3733313,-47.6632702,"-6.3733313,-47.6632702",3898
1714880,NOVA OLINDA,17,TO,TOCANTINS,-7.6317120,-48.4252320,"-7.631712,-48.425232",11819
1715002,NOVA ROSALANDIA,17,TO,TOCANTINS,-10.5651020,-48.9124770,"-10.565102,-48.912477",4260
1715101,NOVO ACORDO,17,TO,TOCANTINS,-9.9646580,-47.6762804,"-9.964658,-47.6762804",4342
1715150,NOVO ALEGRE,17,TO,TOCANTINS,-12.9151340,-46.5740939,"-12.915134,-46.5740939",2332
1715259,NOVO JARDIM,17,TO,TOCANTINS,-11.8199253,-46.6254107,"-11.8199253,-46.6254107",2722
1715507,OLIVEIRA DE FATIMA,17,TO,TOCANTINS,-10.7091365,-48.9077446,"-10.7091365,-48.9077446",1112
1715705,PALMEIRANTE,17,TO,TOCANTINS,-7.8582335,-47.9264382,"-7.8582335,-47.9264382",6026
1715754,PALMEIROPOLIS,17,TO,TOCANTINS,-13.0428105,-48.4065223,"-13.0428105,-48.4065223",7659
1716109,PARAISO DO TOCANTINS,17,TO,TOCANTINS,-10.1752474,-48.8867590,"-10.1752474,-48.886759",51252
1716208,PARANA,17,TO,TOCANTINS,-12.6167470,-47.8733780,"-12.616747,-47.873378",10449
1716307,PAU D'ARCO,17,TO,TOCANTINS,-7.5416832,-49.3686216,"-7.5416832,-49.3686216",4849
1716505,PEDRO AFONSO,17,TO,TOCANTINS,-8.9757351,-48.1733282,"-8.9757351,-48.1733282",13578
1716604,PEIXE,17,TO,TOCANTINS,-12.0390993,-48.5392455,"-12.0390993,-48.5392455",11749
1716653,PEQUIZEIRO,17,TO,TOCANTINS,-8.5948460,-48.9332775,"-8.594846,-48.9332775",5477
1716703,COLMEIA,17,TO,TOCANTINS,-8.7340980,-48.7510897,"-8.734098,-48.7510897",8205
1717008,PINDORAMA DO TOCANTINS,17,TO,TOCANTINS,-11.1310740,-47.5726300,"-11.131074,-47.57263",4447
1717206,PIRAQUE,17,TO,TOCANTINS,-6.7698310,-48.2945507,"-6.769831,-48.2945507",3028
1717503,PIUM,17,TO,TOCANTINS,-10.4421368,-49.1747741,"-10.4421368,-49.1747741",7654
1717800,PONTE ALTA DO BOM JESUS,17,TO,TOCANTINS,-12.0873615,-46.4785732,"-12.0873615,-46.4785732",4596
1717909,PONTE ALTA DO TOCANTINS,17,TO,TOCANTINS,-10.7454591,-47.5374479,"-10.7454591,-47.5374479",8039
1718006,PORTO ALEGRE DO TOCANTINS,17,TO,TOCANTINS,-11.6070802,-47.0526270,"-11.6070802,-47.052627",3139
1718204,PORTO NACIONAL,17,TO,TOCANTINS,-10.7019786,-48.4110952,"-10.7019786,-48.4110952",53010
1718303,PRAIA NORTE,17,TO,TOCANTINS,-5.3928120,-47.8111440,"-5.392812,-47.811144",8432
1718402,PRESIDENTE KENNEDY,17,TO,TOCANTINS,-8.5340643,-48.5060747,"-8.5340643,-48.5060747",3684
1718451,PUGMIL,17,TO,TOCANTINS,-10.4255161,-48.8969824,"-10.4255161,-48.8969824",2688
1718501,RECURSOLANDIA,17,TO,TOCANTINS,-8.7368677,-47.2416349,"-8.7368677,-47.2416349",4293
1718550,RIACHINHO,17,TO,TOCANTINS,-6.4426372,-48.1379690,"-6.4426372,-48.137969",4645
1718659,RIO DA CONCEICAO,17,TO,TOCANTINS,-11.3948630,-46.8846640,"-11.394863,-46.884664",2130
1718709,RIO DOS BOIS,17,TO,TOCANTINS,-9.3412231,-48.5349207,"-9.3412231,-48.5349207",2834
1718758,RIO SONO,17,TO,TOCANTINS,-9.3442508,-47.8998831,"-9.3442508,-47.8998831",6478
1718808,SAMPAIO,17,TO,TOCANTINS,-5.3542330,-47.8781840,"-5.354233,-47.878184",4711
1718840,SANDOLANDIA,17,TO,TOCANTINS,-12.5389465,-49.9285958,"-12.5389465,-49.9285958",3375
1718865,SANTA FE DO ARAGUAIA,17,TO,TOCANTINS,-7.1500720,-48.6925943,"-7.150072,-48.6925943",7512
1718881,SANTA MARIA DO TOCANTINS,17,TO,TOCANTINS,-8.7752144,-47.7482956,"-8.7752144,-47.7482956",3434
1718899,SANTA RITA DO TOCANTINS,17,TO,TOCANTINS,-10.8643623,-48.9082979,"-10.8643623,-48.9082979",2365
1718907,SANTA ROSA DO TOCANTINS,17,TO,TOCANTINS,-11.4473920,-48.1216270,"-11.447392,-48.121627",4829
1719004,SANTA TEREZA DO TOCANTINS,17,TO,TOCANTINS,-10.2816205,-47.8091871,"-10.2816205,-47.8091871",2866
1720002,SANTA TEREZINHA DO TOCANTINS,17,TO,TOCANTINS,-6.4356048,-47.6730610,"-6.4356048,-47.673061",2529
1720101,SAO BENTO DO TOCANTINS,17,TO,TOCANTINS,-6.0218530,-47.9000570,"-6.021853,-47.900057",5324
1720150,SAO FELIX DO TOCANTINS,17,TO,TOCANTINS,-10.1614650,-46.6617860,"-10.161465,-46.661786",1585
1720200,SAO MIGUEL DO TOCANTINS,17,TO,TOCANTINS,-5.5549817,-47.5747649,"-5.5549817,-47.5747649",12139
1720259,SAO SALVADOR DO TOCANTINS,17,TO,TOCANTINS,-12.7503331,-48.2352148,"-12.7503331,-48.2352148",3082
1720309,SAO SEBASTIAO DO TOCANTINS,17,TO,TOCANTINS,-5.2587094,-48.2055574,"-5.2587094,-48.2055574",4805
1720499,SAO VALERIO,17,TO,TOCANTINS,-11.9743150,-48.2353150,"-11.974315,-48.235315",3960
1720655,SILVANOPOLIS,17,TO,TOCANTINS,-11.1470990,-48.1693700,"-11.147099,-48.16937",5403
1720804,SITIO NOVO DO TOCANTINS,17,TO,TOCANTINS,-5.6028662,-47.6349901,"-5.6028662,-47.6349901",9029
1720853,SUCUPIRA,17,TO,TOCANTINS,-11.9850885,-48.9113689,"-11.9850885,-48.9113689",1966
1720903,TAGUATINGA,17,TO,TOCANTINS,-12.4024040,-46.4365769,"-12.402404,-46.4365769",16683
1720937,TAIPAS DO TOCANTINS,17,TO,TOCANTINS,-12.1933490,-46.9918003,"-12.193349,-46.9918003",2148
1720978,TALISMA,17,TO,TOCANTINS,-12.7978360,-49.0929839,"-12.797836,-49.0929839",2793
1721000,PALMAS,17,TO,TOCANTINS,-10.1835604,-48.3337793,"-10.1835604,-48.3337793",299127
1721109,TOCANTINIA,17,TO,TOCANTINS,-9.5631980,-48.3741040,"-9.563198,-48.374104",7545
1721208,TOCANTINOPOLIS,17,TO,TOCANTINS,-6.3280931,-47.4217673,"-6.3280931,-47.4217673",22870
1721257,TUPIRAMA,17,TO,TOCANTINS,-8.9746528,-48.1887392,"-8.9746528,-48.1887392",1891
1721307,TUPIRATINS,17,TO,TOCANTINS,-8.3996247,-48.1299635,"-8.3996247,-48.1299635",2671
1722081,WANDERLANDIA,17,TO,TOCANTINS,-6.8522727,-47.9653917,"-6.8522727,-47.9653917",11683
1722107,XAMBIOA,17,TO,TOCANTINS,-7.1248132,-49.1794868,"-7.1248132,-49.1794868",11540
2100055,ACAILANDIA,21,MA,MARANHAO,-4.9514278,-47.4844564,"-4.9514278,-47.4844564",112445
2100105,AFONSO CUNHA,21,MA,MARANHAO,-4.1326105,-43.3230026,"-4.1326105,-43.3230026",6524
2100154,AGUA DOCE DO MARANHAO,21,MA,MARANHAO,-2.8402004,-42.1181949,"-2.8402004,-42.1181949",12571
2100204,ALCANTARA,21,MA,MARANHAO,-2.4038956,-44.4154241,"-2.4038956,-44.4154241",22097
2100303,ALDEIAS ALTAS,21,MA,MARANHAO,-4.6291957,-43.4708622,"-4.6291957,-43.4708622",26532
2100402,ALTAMIRA DO MARANHAO,21,MA,MARANHAO,-4.1643006,-45.4674574,"-4.1643006,-45.4674574",8128
2100436,ALTO ALEGRE DO MARANHAO,21,MA,MARANHAO,-4.2055693,-44.4525287,"-4.2055693,-44.4525287",27053
2100477,ALTO ALEGRE DO PINDARE,21,MA,MARANHAO,-3.6698186,-45.8462153,"-3.6698186,-45.8462153",31919
2100501,ALTO PARNAIBA,21,MA,MARANHAO,-9.1125060,-45.9310154,"-9.112506,-45.9310154",11190
2100550,AMAPA DO MARANHAO,21,MA,MARANHAO,-1.6762114,-46.0109669,"-1.6762114,-46.0109669",6962
2100600,AMARANTE DO MARANHAO,21,MA,MARANHAO,-5.5691300,-46.7472840,"-5.56913,-46.747284",41435
2100709,ANAJATUBA,21,MA,MARANHAO,-3.2644100,-44.6179916,"-3.26441,-44.6179916",26803
2100808,ANAPURUS,21,MA,MARANHAO,-3.6751298,-43.1046001,"-3.6751298,-43.1046001",15732
2100832,APICUM-ACU,21,MA,MARANHAO,-1.5279295,-45.0822780,"-1.5279295,-45.082278",17239
2100873,ARAGUANA,21,MA,MARANHAO,-2.9508403,-45.6651986,"-2.9508403,-45.6651986",15426
2100907,ARAIOSES,21,MA,MARANHAO,-2.8909140,-41.9049930,"-2.890914,-41.904993",46440
2100956,ARAME,21,MA,MARANHAO,-4.8858769,-46.0102484,"-4.8858769,-46.0102484",32701
2101004,ARARI,21,MA,MARANHAO,-3.4547602,-44.7772723,"-3.4547602,-44.7772723",29848
2101103,AXIXA,21,MA,MARANHAO,-5.2779569,-45.6683061,"-5.2779569,-45.6683061",12130
2101202,BACABAL,21,MA,MARANHAO,-4.2318132,-44.7811670,"-4.2318132,-44.781167",104949
2101251,BACABEIRA,21,MA,MARANHAO,-2.9775747,-44.3155943,"-2.9775747,-44.3155943",17055
2101301,BACURI,21,MA,MARANHAO,-1.7288940,-45.1417148,"-1.728894,-45.1417148",18582
2101350,BACURITUBA,21,MA,MARANHAO,-2.7082587,-44.7381309,"-2.7082587,-44.7381309",5644
2101400,BALSAS,21,MA,MARANHAO,-7.5321400,-46.0371630,"-7.53214,-46.037163",94887
2101509,BARAO DE GRAJAU,21,MA,MARANHAO,-6.7542591,-43.0263477,"-6.7542591,-43.0263477",18820
2101608,BARRA DO CORDA,21,MA,MARANHAO,-5.4968230,-45.2484960,"-5.496823,-45.248496",88212
2101707,BARREIRINHAS,21,MA,MARANHAO,-2.7541271,-42.8259693,"-2.7541271,-42.8259693",62528
2101731,BELAGUA,21,MA,MARANHAO,-3.1604031,-43.5085052,"-3.1604031,-43.5085052",7469
2101772,BELA VISTA DO MARANHAO,21,MA,MARANHAO,-3.7416367,-45.2514192,"-3.7416367,-45.2514192",11209
2101806,BENEDITO LEITE,21,MA,MARANHAO,-7.2173453,-44.5523331,"-7.2173453,-44.5523331",5632
2101905,BEQUIMAO,21,MA,MARANHAO,-2.4495376,-44.7884889,"-2.4495376,-44.7884889",21280
2101939,BERNARDO DO MEARIM,21,MA,MARANHAO,-4.6315929,-44.7617508,"-4.6315929,-44.7617508",6043
2101970,BOA VISTA DO GURUPI,21,MA,MARANHAO,-1.7981168,-46.3071882,"-1.7981168,-46.3071882",9287
2102002,BOM JARDIM,21,MA,MARANHAO,-3.5412900,-45.6060040,"-3.54129,-45.606004",41630
2102036,BOM JESUS DAS SELVAS,21,MA,MARANHAO,-4.4878075,-46.8526639,"-4.4878075,-46.8526639",34028
2102077,BOM LUGAR,21,MA,MARANHAO,-4.3728019,-45.0366054,"-4.3728019,-45.0366054",16294
2102101,BREJO,21,MA,MARANHAO,-3.6804397,-42.7529313,"-3.6804397,-42.7529313",36397
2102150,BREJO DE AREIA,21,MA,MARANHAO,-4.3316785,-45.5833334,"-4.3316785,-45.5833334",9188
2102200,BURITI,21,MA,MARANHAO,-3.9430944,-42.9244281,"-3.9430944,-42.9244281",28678
2102309,BURITI BRAVO,21,MA,MARANHAO,-5.8391884,-43.8367876,"-5.8391884,-43.8367876",23884
2102325,BURITICUPU,21,MA,MARANHAO,-4.3227472,-46.4516989,"-4.3227472,-46.4516989",72358
2102358,BURITIRANA,21,MA,MARANHAO,-5.5897455,-47.0148915,"-5.5897455,-47.0148915",15430
2102374,CACHOEIRA GRANDE,21,MA,MARANHAO,-2.9290492,-44.0573223,"-2.9290492,-44.0573223",9431
2102408,CAJAPIO,21,MA,MARANHAO,-2.8778715,-44.6746871,"-2.8778715,-44.6746871",11177
2102507,CAJARI,21,MA,MARANHAO,-3.3213076,-45.0118757,"-3.3213076,-45.0118757",19379
2102556,CAMPESTRE DO MARANHAO,21,MA,MARANHAO,-6.1729113,-47.3640512,"-6.1729113,-47.3640512",14374
2102606,CANDIDO MENDES,21,MA,MARANHAO,-1.4531117,-45.7273136,"-1.4531117,-45.7273136",20178
2102705,CANTANHEDE,21,MA,MARANHAO,-3.6355005,-44.3778738,"-3.6355005,-44.3778738",21995
2102754,CAPINZAL DO NORTE,21,MA,MARANHAO,-4.7304006,-44.3249063,"-4.7304006,-44.3249063",10934
2102804,CAROLINA,21,MA,MARANHAO,-7.3313437,-47.4738762,"-7.3313437,-47.4738762",24322
2102903,CARUTAPERA,21,MA,MARANHAO,-1.2016638,-46.0205618,"-1.2016638,-46.0205618",23807
2103000,CAXIAS,21,MA,MARANHAO,-4.8654201,-43.3536640,"-4.8654201,-43.353664",164880
2103109,CEDRAL,21,MA,MARANHAO,-2.0002690,-44.5281140,"-2.000269,-44.528114",10675
2103125,CENTRAL DO MARANHAO,21,MA,MARANHAO,-2.1967253,-44.8290757,"-2.1967253,-44.8290757",8673
2103158,CENTRO DO GUILHERME,21,MA,MARANHAO,-2.4511749,-46.0391270,"-2.4511749,-46.039127",13458
2103174,CENTRO NOVO DO MARANHAO,21,MA,MARANHAO,-2.1361032,-46.1248528,"-2.1361032,-46.1248528",21622
2103208,CHAPADINHA,21,MA,MARANHAO,-3.7416803,-43.3548006,"-3.7416803,-43.3548006",79675
2103257,CIDELANDIA,21,MA,MARANHAO,-5.1746550,-47.7833531,"-5.174655,-47.7833531",14697
2103307,CODO,21,MA,MARANHAO,-4.4556230,-43.8923540,"-4.455623,-43.892354",122859
2103406,COELHO NETO,21,MA,MARANHAO,-4.2535154,-43.0149321,"-4.2535154,-43.0149321",49435
2103505,COLINAS,21,MA,MARANHAO,-6.0332631,-44.2528542,"-6.0332631,-44.2528542",41178
2103554,CONCEICAO DO LAGO-ACU,21,MA,MARANHAO,-3.8410056,-44.8930565,"-3.8410056,-44.8930565",16237
2103604,COROATA,21,MA,MARANHAO,-6.1111680,-44.5171702,"-6.111168,-44.5171702",65296
2103703,CURURUPU,21,MA,MARANHAO,-1.8242550,-44.8729960,"-1.824255,-44.872996",32695
2103752,DAVINOPOLIS,21,MA,MARANHAO,-5.5265775,-47.3942217,"-5.5265775,-47.3942217",12908
2103802,DOM PEDRO,21,MA,MARANHAO,-5.0389999,-44.4377854,"-5.0389999,-44.4377854",23350
2103901,DUQUE BACELAR,21,MA,MARANHAO,-4.1542795,-42.9460960,"-4.1542795,-42.946096",11349
2104008,ESPERANTINOPOLIS,21,MA,MARANHAO,-4.8751875,-44.8801032,"-4.8751875,-44.8801032",17241
2104057,ESTREITO,21,MA,MARANHAO,-6.5583016,-47.4432212,"-6.5583016,-47.4432212",41946
2104073,FEIRA NOVA DO MARANHAO,21,MA,MARANHAO,-6.9650820,-46.6785770,"-6.965082,-46.678577",8504
2104081,FERNANDO FALCAO,21,MA,MARANHAO,-6.1512461,-44.9022436,"-6.1512461,-44.9022436",10360
2104099,FORMOSA DA SERRA NEGRA,21,MA,MARANHAO,-6.4437601,-46.1905789,"-6.4437601,-46.1905789",19089
2104107,FORTALEZA DOS NOGUEIRAS,21,MA,MARANHAO,-6.9643779,-46.1703933,"-6.9643779,-46.1703933",12631
2104206,FORTUNA,21,MA,MARANHAO,-5.7331469,-44.1542760,"-5.7331469,-44.154276",15552
2104305,GODOFREDO VIANA,21,MA,MARANHAO,-1.4147105,-45.7713182,"-1.4147105,-45.7713182",11819
2104404,GONCALVES DIAS,21,MA,MARANHAO,-5.1532875,-44.2997071,"-5.1532875,-44.2997071",17934
2104503,GOVERNADOR ARCHER,21,MA,MARANHAO,-5.0235620,-44.2709924,"-5.023562,-44.2709924",10840
2104552,GOVERNADOR EDISON LOBAO,21,MA,MARANHAO,-5.7456705,-47.3630910,"-5.7456705,-47.363091",18296
2104602,GOVERNADOR EUGENIO BARROS,21,MA,MARANHAO,-5.3200262,-44.2440583,"-5.3200262,-44.2440583",16828
2104628,GOVERNADOR LUIZ ROCHA,21,MA,MARANHAO,-5.4707760,-44.0720572,"-5.470776,-44.0720572",7807
2104651,GOVERNADOR NEWTON BELLO,21,MA,MARANHAO,-3.4285914,-45.6714297,"-3.4285914,-45.6714297",10180
2104677,GOVERNADOR NUNES FREIRE,21,MA,MARANHAO,-2.1303959,-45.8900498,"-2.1303959,-45.8900498",25577
2104701,GRACA ARANHA,21,MA,MARANHAO,-5.4054680,-44.3358160,"-5.405468,-44.335816",6262
2104800,GRAJAU,21,MA,MARANHAO,-5.8154034,-46.1361454,"-5.8154034,-46.1361454",69527
2104909,GUIMARAES,21,MA,MARANHAO,-2.1275510,-44.6019900,"-2.127551,-44.60199",12030
2105005,HUMBERTO DE CAMPOS,21,MA,MARANHAO,-2.5982820,-43.4648770,"-2.598282,-43.464877",28717
2105104,ICATU,21,MA,MARANHAO,-2.7720650,-44.0500610,"-2.772065,-44.050061",27113
2105153,IGARAPE DO MEIO,21,MA,MARANHAO,-3.6397814,-45.1872837,"-3.6397814,-45.1872837",14177
2105203,IGARAPE GRANDE,21,MA,MARANHAO,-4.6621855,-44.8546609,"-4.6621855,-44.8546609",11320
2105302,IMPERATRIZ,21,MA,MARANHAO,-5.5269279,-47.4781150,"-5.5269279,-47.478115",258682
2105351,ITAIPAVA DO GRAJAU,21,MA,MARANHAO,-5.1421474,-45.7878573,"-5.1421474,-45.7878573",16057
2105401,ITAPECURU MIRIM,21,MA,MARANHAO,-3.3973569,-44.3560724,"-3.3973569,-44.3560724",68203
2105427,ITINGA DO MARANHAO,21,MA,MARANHAO,-4.4529250,-47.5253727,"-4.452925,-47.5253727",26000
2105450,JATOBA,21,MA,MARANHAO,-6.4464833,-44.2880767,"-6.4464833,-44.2880767",10153
2105476,JENIPAPO DOS VIEIRAS,21,MA,MARANHAO,-5.3679814,-45.6348267,"-5.3679814,-45.6348267",16515
2105500,JOAO LISBOA,21,MA,MARANHAO,-5.4436300,-47.4063880,"-5.44363,-47.406388",23632
2105609,JOSELANDIA,21,MA,MARANHAO,-4.9860047,-44.6969530,"-4.9860047,-44.696953",16168
2105658,JUNCO DO MARANHAO,21,MA,MARANHAO,-1.8799132,-46.0726685,"-1.8799132,-46.0726685",3432
2105708,LAGO DA PEDRA,21,MA,MARANHAO,-4.5627272,-45.1298628,"-4.5627272,-45.1298628",50266
2105807,LAGO DO JUNCO,21,MA,MARANHAO,-4.6070838,-45.0530093,"-4.6070838,-45.0530093",10840
2105906,LAGO VERDE,21,MA,MARANHAO,-4.0425250,-44.9364782,"-4.042525,-44.9364782",16257
2105922,LAGOA DO MATO,21,MA,MARANHAO,-6.0486500,-43.5273907,"-6.04865,-43.5273907",11250
2105948,LAGO DOS RODRIGUES,21,MA,MARANHAO,-4.6119168,-44.9800419,"-4.6119168,-44.9800419",8873
2105963,LAGOA GRANDE DO MARANHAO,21,MA,MARANHAO,-4.9894255,-45.3815083,"-4.9894255,-45.3815083",11394
2105989,LAJEADO NOVO,21,MA,MARANHAO,-6.1898777,-47.0325965,"-6.1898777,-47.0325965",7550
2106003,LIMA CAMPOS,21,MA,MARANHAO,-4.5179809,-44.4671291,"-4.5179809,-44.4671291",11893
2106102,LORETO,21,MA,MARANHAO,-7.0856200,-45.1397421,"-7.08562,-45.1397421",12157
2106201,LUIS DOMINGUES,21,MA,MARANHAO,-1.3284412,-45.8975062,"-1.3284412,-45.8975062",6951
2106300,MAGALHAES DE ALMEIDA,21,MA,MARANHAO,-3.3923190,-42.2117430,"-3.392319,-42.211743",19826
2106326,MARACACUME,21,MA,MARANHAO,-2.0491770,-45.9587340,"-2.049177,-45.958734",21395
2106359,MARAJA DO SENA,21,MA,MARANHAO,-4.6213998,-45.4539567,"-4.6213998,-45.4539567",7792
2106375,MARANHAOZINHO,21,MA,MARANHAO,-2.2429316,-45.8588977,"-2.2429316,-45.8588977",16265
2106409,MATA ROMA,21,MA,MARANHAO,-3.6210147,-43.1156951,"-3.6210147,-43.1156951",16829
2106508,MATINHA,21,MA,MARANHAO,-3.1022120,-45.0322080,"-3.102212,-45.032208",23370
2106607,MATOES,21,MA,MARANHAO,-5.5210672,-43.2041534,"-5.5210672,-43.2041534",33782
2106631,MATOES DO NORTE,21,MA,MARANHAO,-3.6268881,-44.5547543,"-3.6268881,-44.5547543",16745
2106672,MILAGRES DO MARANHAO,21,MA,MARANHAO,-3.5815605,-42.6080355,"-3.5815605,-42.6080355",8464
2106706,MIRADOR,21,MA,MARANHAO,-6.3703992,-44.3621057,"-6.3703992,-44.3621057",21015
2106755,MIRANDA DO NORTE,21,MA,MARANHAO,-3.5653459,-44.5809128,"-3.5653459,-44.5809128",28381
2106805,MIRINZAL,21,MA,MARANHAO,-2.0664539,-44.7837348,"-2.0664539,-44.7837348",14962
2106904,MONCAO,21,MA,MARANHAO,-3.4842036,-45.2515472,"-3.4842036,-45.2515472",33434
2107001,MONTES ALTOS,21,MA,MARANHAO,-5.8316731,-47.0658003,"-5.8316731,-47.0658003",9160
2107100,MORROS,21,MA,MARANHAO,-2.8652201,-44.0390477,"-2.8652201,-44.0390477",19433
2107209,NINA RODRIGUES,21,MA,MARANHAO,-3.4678840,-43.9134200,"-3.467884,-43.91342",14454
2107258,NOVA COLINAS,21,MA,MARANHAO,-7.1196897,-46.2610972,"-7.1196897,-46.2610972",5384
2107308,NOVA IORQUE,21,MA,MARANHAO,-6.7357067,-44.0461510,"-6.7357067,-44.046151",4683
2107357,NOVA OLINDA DO MARANHAO,21,MA,MARANHAO,-2.8043732,-45.7013215,"-2.8043732,-45.7013215",20928
2107407,OLHO D'AGUA DAS CUNHAS,21,MA,MARANHAO,-4.1403110,-45.1184685,"-4.140311,-45.1184685",19505
2107456,OLINDA NOVA DO MARANHAO,21,MA,MARANHAO,-2.9960265,-44.9946822,"-2.9960265,-44.9946822",14701
2107506,PACO DO LUMIAR,21,MA,MARANHAO,-2.5210576,-44.1063031,"-2.5210576,-44.1063031",122197 (6)
2107605,PALMEIRANDIA,21,MA,MARANHAO,-2.6474166,-44.8983779,"-2.6474166,-44.8983779",19722
2107704,PARAIBANO,21,MA,MARANHAO,-6.4316929,-43.9877038,"-6.4316929,-43.9877038",21386
2107803,PARNARAMA,21,MA,MARANHAO,-5.6823685,-43.0895346,"-5.6823685,-43.0895346",34907
2107902,PASSAGEM FRANCA,21,MA,MARANHAO,-6.1774510,-43.7755110,"-6.177451,-43.775511",19019
2108009,PASTOS BONS,21,MA,MARANHAO,-6.6013999,-44.0878124,"-6.6013999,-44.0878124",19472
2108058,PAULINO NEVES,21,MA,MARANHAO,-2.7227359,-42.5397648,"-2.7227359,-42.5397648",16035
2108108,PAULO RAMOS,21,MA,MARANHAO,-4.4491095,-45.2420345,"-4.4491095,-45.2420345",21040
2108207,PEDREIRAS,21,MA,MARANHAO,-4.5687989,-44.6003029,"-4.5687989,-44.6003029",39229
2108256,PEDRO DO ROSARIO,21,MA,MARANHAO,-2.9727190,-45.3493160,"-2.972719,-45.349316",25144
2108306,PENALVA,21,MA,MARANHAO,-3.2881215,-45.1742086,"-3.2881215,-45.1742086",38470
2108405,PERI MIRIM,21,MA,MARANHAO,-2.5768477,-44.8556207,"-2.5768477,-44.8556207",14318
2108454,PERITORO,21,MA,MARANHAO,-4.3723643,-44.3317455,"-4.3723643,-44.3317455",23196
2108504,PINDARE-MIRIM,21,MA,MARANHAO,-3.6124457,-45.3404235,"-3.6124457,-45.3404235",32941
2108603,PINHEIRO,21,MA,MARANHAO,-2.5270459,-45.0866463,"-2.5270459,-45.0866463",83387
2108702,PIO XII,21,MA,MARANHAO,-3.8911223,-45.1710284,"-3.8911223,-45.1710284",21485
2108801,PIRAPEMAS,21,MA,MARANHAO,-3.7270563,-44.2267429,"-3.7270563,-44.2267429",18625
2108900,POCAO DE PEDRAS,21,MA,MARANHAO,-4.7511250,-44.9430514,"-4.751125,-44.9430514",17873
2109007,PORTO FRANCO,21,MA,MARANHAO,-6.3414900,-47.3961880,"-6.34149,-47.396188",23885
2109056,PORTO RICO DO MARANHAO,21,MA,MARANHAO,-1.8597328,-44.5854991,"-1.8597328,-44.5854991",5975
2109106,PRESIDENTE DUTRA,21,MA,MARANHAO,-5.2898010,-44.4949800,"-5.289801,-44.49498",47804
2109205,PRESIDENTE JUSCELINO,21,MA,MARANHAO,-2.9262742,-44.0653783,"-2.9262742,-44.0653783",12734
2109239,PRESIDENTE MEDICI,21,MA,MARANHAO,-2.3764612,-45.8207313,"-2.3764612,-45.8207313",7015
2109270,PRESIDENTE SARNEY,21,MA,MARANHAO,-2.5907563,-45.3623652,"-2.5907563,-45.3623652",18918
2109304,PRESIDENTE VARGAS,21,MA,MARANHAO,-3.4065166,-44.0270508,"-3.4065166,-44.0270508",11193
2109403,PRIMEIRA CRUZ,21,MA,MARANHAO,-2.5076725,-43.4385918,"-2.5076725,-43.4385918",15315
2109452,RAPOSA,21,MA,MARANHAO,-2.4459454,-44.1193757,"-2.4459454,-44.1193757",30761
2109502,RIACHAO,21,MA,MARANHAO,-7.3642557,-46.6226095,"-7.3642557,-46.6226095",20195
2109551,RIBAMAR FIQUENE,21,MA,MARANHAO,-5.9306660,-47.3887770,"-5.930666,-47.388777",7791
2109601,ROSARIO,21,MA,MARANHAO,-2.9405903,-44.2491088,"-2.9405903,-44.2491088",42740
2109700,SAMBAIBA,21,MA,MARANHAO,-5.3515703,-46.2033848,"-5.3515703,-46.2033848",5671
2109759,SANTA FILOMENA DO MARANHAO,21,MA,MARANHAO,-5.4981960,-44.5581460,"-5.498196,-44.558146",7773
2109809,SANTA HELENA,21,MA,MARANHAO,-2.2343870,-45.3002279,"-2.234387,-45.3002279",42130
2109908,SANTA INES,21,MA,MARANHAO,-5.5035798,-47.4983686,"-5.5035798,-47.4983686",89044
2110005,SANTA LUZIA,21,MA,MARANHAO,-3.9633675,-45.6637956,"-3.9633675,-45.6637956",72667
2110039,SANTA LUZIA DO PARUA,21,MA,MARANHAO,-2.5440662,-45.7757570,"-2.5440662,-45.775757",25254
2110104,SANTA QUITERIA DO MARANHAO,21,MA,MARANHAO,-3.4967557,-42.5638780,"-3.4967557,-42.563878",25642
2110203,SANTA RITA,21,MA,MARANHAO,-3.1411146,-44.3270285,"-3.1411146,-44.3270285",37855
2110237,SANTANA DO MARANHAO,21,MA,MARANHAO,-3.1156576,-42.4123538,"-3.1156576,-42.4123538",13386
2110278,SANTO AMARO DO MARANHAO,21,MA,MARANHAO,-2.4987599,-43.2532740,"-2.4987599,-43.253274",15846
2110302,SANTO ANTONIO DOS LOPES,21,MA,MARANHAO,-4.8661340,-44.3652780,"-4.866134,-44.365278",14528
2110401,SAO BENEDITO DO RIO PRETO,21,MA,MARANHAO,-3.3306675,-43.5264074,"-3.3306675,-43.5264074",18663
2110500,SAO BENTO,21,MA,MARANHAO,-2.6999089,-44.8331254,"-2.6999089,-44.8331254",45211
2110609,SAO BERNARDO,21,MA,MARANHAO,-3.3650267,-42.4224814,"-3.3650267,-42.4224814",28507
2110658,SAO DOMINGOS DO AZEITAO,21,MA,MARANHAO,-6.8108680,-44.6445713,"-6.810868,-44.6445713",7392
2110708,SAO DOMINGOS DO MARANHAO,21,MA,MARANHAO,-5.5799743,-44.3841617,"-5.5799743,-44.3841617",34376
2110807,SAO FELIX DE BALSAS,21,MA,MARANHAO,-7.0834586,-44.8139329,"-7.0834586,-44.8139329",4585
2110856,SAO FRANCISCO DO BREJAO,21,MA,MARANHAO,-5.1248690,-47.3871865,"-5.124869,-47.3871865",11798
2110906,SAO FRANCISCO DO MARANHAO,21,MA,MARANHAO,-6.2493970,-42.8581192,"-6.249397,-42.8581192",12210
2111003,SAO JOAO BATISTA,21,MA,MARANHAO,-2.9582059,-44.7984816,"-2.9582059,-44.7984816",20665
2111029,SAO JOAO DO CARU,21,MA,MARANHAO,-3.5556764,-46.2569799,"-3.5556764,-46.2569799",15808
2111052,SAO JOAO DO PARAISO,21,MA,MARANHAO,-6.4637943,-47.0567941,"-6.4637943,-47.0567941",11177
2111078,SAO JOAO DO SOTER,21,MA,MARANHAO,-5.1122323,-43.8109269,"-5.1122323,-43.8109269",18543
2111102,SAO JOAO DOS PATOS,21,MA,MARANHAO,-6.4934000,-43.7036230,"-6.4934,-43.703623",25929
2111201,SAO JOSE DE RIBAMAR,21,MA,MARANHAO,-2.5609115,-44.0559509,"-2.5609115,-44.0559509",177687
2111250,SAO JOSE DOS BASILIOS,21,MA,MARANHAO,-5.0530693,-44.5843209,"-5.0530693,-44.5843209",7641
2111300,SAO LUIS,21,MA,MARANHAO,-1.7963300,-46.1992200,"-1.79633,-46.19922",1101884
2111409,SAO LUIS GONZAGA DO MARANHAO,21,MA,MARANHAO,-4.3727458,-44.6690368,"-4.3727458,-44.6690368",18856
2111508,SAO MATEUS DO MARANHAO,21,MA,MARANHAO,-4.0289169,-44.4667342,"-4.0289169,-44.4667342",41529
2111532,SAO PEDRO DA AGUA BRANCA,21,MA,MARANHAO,-5.0834030,-48.4299175,"-5.083403,-48.4299175",12690
2111573,SAO PEDRO DOS CRENTES,21,MA,MARANHAO,-6.8238890,-46.5318640,"-6.823889,-46.531864",4668
2111607,SAO RAIMUNDO DAS MANGABEIRAS,21,MA,MARANHAO,-7.0236080,-45.4769436,"-7.023608,-45.4769436",18868
2111631,SAO RAIMUNDO DO DOCA BEZERRA,21,MA,MARANHAO,-5.1042784,-45.0847117,"-5.1042784,-45.0847117",5237
2111672,SAO ROBERTO,21,MA,MARANHAO,-5.0188478,-44.9925058,"-5.0188478,-44.9925058",6719
2111706,SAO VICENTE FERRER,21,MA,MARANHAO,-2.8927449,-44.8803633,"-2.8927449,-44.8803633",22247
2111722,SATUBINHA,21,MA,MARANHAO,-3.8478070,-45.2563709,"-3.847807,-45.2563709",13914
2111748,SENADOR ALEXANDRE COSTA,21,MA,MARANHAO,-5.2597445,-44.0542395,"-5.2597445,-44.0542395",11141
2111763,SENADOR LA ROCQUE,21,MA,MARANHAO,-5.4444319,-47.2921001,"-5.4444319,-47.2921001",14293
2111789,SERRANO DO MARANHAO,21,MA,MARANHAO,-1.8535718,-45.1158856,"-1.8535718,-45.1158856",10253
2111805,SITIO NOVO,21,MA,MARANHAO,-7.2699117,-45.6969450,"-7.2699117,-45.696945",18081
2111904,SUCUPIRA DO NORTE,21,MA,MARANHAO,-6.4783920,-44.1918890,"-6.478392,-44.191889",10636
2111953,SUCUPIRA DO RIACHAO,21,MA,MARANHAO,-6.4136163,-43.5453433,"-6.4136163,-43.5453433",5660
2112001,TASSO FRAGOSO,21,MA,MARANHAO,-8.4729347,-45.7461798,"-8.4729347,-45.7461798",8521
2112100,TIMBIRAS,21,MA,MARANHAO,-4.2551056,-43.9386212,"-4.2551056,-43.9386212",29124
2112209,TIMON,21,MA,MARANHAO,-5.1023325,-42.8449518,"-5.1023325,-42.8449518",169107
2112233,TRIZIDELA DO VALE,21,MA,MARANHAO,-4.5694816,-44.6144214,"-4.5694816,-44.6144214",21998
2112274,TUFILANDIA,21,MA,MARANHAO,-3.6734127,-45.6357014,"-3.6734127,-45.6357014",5840
2112308,TUNTUM,21,MA,MARANHAO,-5.2630885,-44.6448502,"-5.2630885,-44.6448502",41832
2112407,TURIACU,21,MA,MARANHAO,-1.6710652,-45.3684095,"-1.6710652,-45.3684095",35604
2112456,TURILANDIA,21,MA,MARANHAO,-2.2226922,-45.3061308,"-2.2226922,-45.3061308",25619
2112506,TUTOIA,21,MA,MARANHAO,-2.7614130,-42.2755310,"-2.761413,-42.275531",58860
2112605,URBANO SANTOS,21,MA,MARANHAO,-3.2036233,-43.3929106,"-3.2036233,-43.3929106",33122
2112704,VARGEM GRANDE,21,MA,MARANHAO,-3.5443611,-43.9149128,"-3.5443611,-43.9149128",56510
2112803,VIANA,21,MA,MARANHAO,-3.2099341,-45.0002456,"-3.2099341,-45.0002456",52441
2112852,VILA NOVA DOS MARTIRIOS,21,MA,MARANHAO,-5.1879409,-48.1377908,"-5.1879409,-48.1377908",13392
2112902,VITORIA DO MEARIM,21,MA,MARANHAO,-3.4606064,-44.8719539,"-3.4606064,-44.8719539",32764
2113009,VITORINO FREIRE,21,MA,MARANHAO,-4.2885303,-45.2417582,"-4.2885303,-45.2417582",31523
2114007,ZE DOCA,21,MA,MARANHAO,-3.2701450,-45.6553440,"-3.270145,-45.655344",51714
2200053,ACAUA,22,PI,PIAUI,-8.2195420,-41.0830590,"-8.219542,-41.083059",7084
2200103,AGRICOLANDIA,22,PI,PIAUI,-5.7967843,-42.6605131,"-5.7967843,-42.6605131",5139
2200202,AGUA BRANCA,22,PI,PIAUI,-5.8913922,-42.6361148,"-5.8913922,-42.6361148",17411
2200251,ALAGOINHA DO PIAUI,22,PI,PIAUI,-7.0090952,-40.9396750,"-7.0090952,-40.939675",7651
2200277,ALEGRETE DO PIAUI,22,PI,PIAUI,-7.2440138,-40.8602296,"-7.2440138,-40.8602296",4915
2200301,ALTO LONGA,22,PI,PIAUI,-5.2549051,-42.2072388,"-5.2549051,-42.2072388",14304
2200400,ALTOS,22,PI,PIAUI,-5.0393915,-42.4611694,"-5.0393915,-42.4611694",40524
2200459,ALVORADA DO GURGUEIA,22,PI,PIAUI,-8.4465288,-43.8655915,"-8.4465288,-43.8655915",5419
2200509,AMARANTE,22,PI,PIAUI,-6.2459374,-42.8476238,"-6.2459374,-42.8476238",17598
2200608,ANGICAL DO PIAUI,22,PI,PIAUI,-6.0872666,-42.7366138,"-6.0872666,-42.7366138",6788
2200707,ANISIO DE ABREU,22,PI,PIAUI,-9.1856430,-43.0494100,"-9.185643,-43.04941",9880
2200806,ANTONIO ALMEIDA,22,PI,PIAUI,-7.2186016,-44.1950248,"-7.2186016,-44.1950248",3164
2200905,AROAZES,22,PI,PIAUI,-6.1108814,-41.7886137,"-6.1108814,-41.7886137",5835
2200954,AROEIRAS DO ITAIM,22,PI,PIAUI,-7.2797031,-41.5629681,"-7.2797031,-41.5629681",2551
2201002,ARRAIAL,22,PI,PIAUI,-6.6541632,-42.5335332,"-6.6541632,-42.5335332",4727
2201051,ASSUNCAO DO PIAUI,22,PI,PIAUI,-5.8610212,-41.0485091,"-5.8610212,-41.0485091",7846
2201101,AVELINO LOPES,22,PI,PIAUI,-10.1346855,-43.9489525,"-10.1346855,-43.9489525",11289
2201150,BAIXA GRANDE DO RIBEIRO,22,PI,PIAUI,-7.8628610,-45.2113289,"-7.862861,-45.2113289",11586
2201176,BARRA D'ALCANTARA,22,PI,PIAUI,-6.5209258,-42.1071089,"-6.5209258,-42.1071089",3951
2201200,BARRAS,22,PI,PIAUI,-4.2446153,-42.2920241,"-4.2446153,-42.2920241",47066
2201309,BARREIRAS DO PIAUI,22,PI,PIAUI,-9.9224524,-45.4763776,"-9.9224524,-45.4763776",3348
2201408,BARRO DURO,22,PI,PIAUI,-5.8180139,-42.5106589,"-5.8180139,-42.5106589",7032
2201507,BATALHA,22,PI,PIAUI,-4.0223910,-42.0780926,"-4.022391,-42.0780926",26857
2201556,BELA VISTA DO PIAUI,22,PI,PIAUI,-7.9716353,-41.8715061,"-7.9716353,-41.8715061",4015
2201572,BELEM DO PIAUI,22,PI,PIAUI,-7.3767305,-40.9712156,"-7.3767305,-40.9712156",3566
2201606,BENEDITINOS,22,PI,PIAUI,-5.4565671,-42.3605061,"-5.4565671,-42.3605061",10467
2201705,BERTOLINIA,22,PI,PIAUI,-7.6372159,-43.9540611,"-7.6372159,-43.9540611",5501
2201739,BETANIA DO PIAUI,22,PI,PIAUI,-8.1460635,-40.7961387,"-8.1460635,-40.7961387",6205
2201770,BOA HORA,22,PI,PIAUI,-4.4094627,-42.1255341,"-4.4094627,-42.1255341",6781
2201804,BOCAINA,22,PI,PIAUI,-6.9445939,-41.3224599,"-6.9445939,-41.3224599",4500
2201903,BOM JESUS,22,PI,PIAUI,-9.0711644,-44.3583926,"-9.0711644,-44.3583926",25179
2201919,BOM PRINCIPIO DO PIAUI,22,PI,PIAUI,-3.1912777,-41.6430185,"-3.1912777,-41.6430185",5630
2201929,BONFIM DO PIAUI,22,PI,PIAUI,-9.1648678,-42.8734415,"-9.1648678,-42.8734415",5670
2201945,BOQUEIRAO DO PIAUI,22,PI,PIAUI,-4.4850148,-42.1095161,"-4.4850148,-42.1095161",6407
2201960,BRASILEIRA,22,PI,PIAUI,-4.1311820,-41.7824969,"-4.131182,-41.7824969",8329
2201988,BREJO DO PIAUI,22,PI,PIAUI,-8.2075830,-42.8359849,"-8.207583,-42.8359849",3875
2202000,BURITI DOS LOPES,22,PI,PIAUI,-3.1776723,-41.8707444,"-3.1776723,-41.8707444",19781
2202026,BURITI DOS MONTES,22,PI,PIAUI,-5.3136171,-41.0971256,"-5.3136171,-41.0971256",8244
2202059,CABECEIRAS DO PIAUI,22,PI,PIAUI,-4.4733665,-42.3098716,"-4.4733665,-42.3098716",10586
2202075,CAJAZEIRAS DO PIAUI,22,PI,PIAUI,-6.7942710,-42.3935024,"-6.794271,-42.3935024",3559
2202083,CAJUEIRO DA PRAIA,22,PI,PIAUI,-2.9311140,-41.3408010,"-2.931114,-41.340801",7642
2202091,CALDEIRAO GRANDE DO PIAUI,22,PI,PIAUI,-7.3310393,-40.6374433,"-7.3310393,-40.6374433",5776
2202109,CAMPINAS DO PIAUI,22,PI,PIAUI,-7.6593687,-41.8814875,"-7.6593687,-41.8814875",5613
2202117,CAMPO ALEGRE DO FIDALGO,22,PI,PIAUI,-8.3753852,-41.8364191,"-8.3753852,-41.8364191",5045
2202133,CAMPO GRANDE DO PIAUI,22,PI,PIAUI,-7.1327559,-41.0381164,"-7.1327559,-41.0381164",5943
2202174,CAMPO LARGO DO PIAUI,22,PI,PIAUI,-3.8104731,-42.6288333,"-3.8104731,-42.6288333",7279
2202208,CAMPO MAIOR,22,PI,PIAUI,-4.8339574,-42.1739786,"-4.8339574,-42.1739786",46833
2202251,CANAVIEIRA,22,PI,PIAUI,-7.6924041,-43.7190063,"-7.6924041,-43.7190063",3950
2202307,CANTO DO BURITI,22,PI,PIAUI,-8.1112473,-42.9448440,"-8.1112473,-42.944844",21187
2202406,CAPITAO DE CAMPOS,22,PI,PIAUI,-4.4584198,-41.9415301,"-4.4584198,-41.9415301",11417
2202455,CAPITAO GERVASIO OLIVEIRA,22,PI,PIAUI,-8.4954657,-41.8169342,"-8.4954657,-41.8169342",4100
2202505,CARACOL,22,PI,PIAUI,-9.2804898,-43.3284924,"-9.2804898,-43.3284924",10916
2202539,CARAUBAS DO PIAUI,22,PI,PIAUI,-3.4757229,-41.8431178,"-3.4757229,-41.8431178",5868
2202554,CARIDADE DO PIAUI,22,PI,PIAUI,-7.7331063,-40.9883665,"-7.7331063,-40.9883665",5067
2202604,CASTELO DO PIAUI,22,PI,PIAUI,-5.3230426,-41.5546185,"-5.3230426,-41.5546185",19716
2202653,CAXINGO,22,PI,PIAUI,-3.4208396,-41.8925637,"-3.4208396,-41.8925637",5424
2202703,COCAL,22,PI,PIAUI,-3.4691882,-41.5558510,"-3.4691882,-41.555851",27787
2202711,COCAL DE TELHA,22,PI,PIAUI,-4.5553648,-41.9722429,"-4.5553648,-41.9722429",4891
2202729,COCAL DOS ALVES,22,PI,PIAUI,-3.5996400,-41.4447410,"-3.59964,-41.444741",6153
2202737,COIVARAS,22,PI,PIAUI,-5.0927005,-42.2052489,"-5.0927005,-42.2052489",4020
2202752,COLONIA DO GURGUEIA,22,PI,PIAUI,-8.1836970,-43.7939990,"-8.183697,-43.793999",6484
2202778,COLONIA DO PIAUI,22,PI,PIAUI,-7.2320268,-42.1777122,"-7.2320268,-42.1777122",7656
2202802,CONCEICAO DO CANINDE,22,PI,PIAUI,-7.8774025,-41.5961417,"-7.8774025,-41.5961417",4803
2202851,CORONEL JOSE DIAS,22,PI,PIAUI,-8.8252316,-42.4782948,"-8.8252316,-42.4782948",4682
2202901,CORRENTE,22,PI,PIAUI,-10.4401356,-45.1627472,"-10.4401356,-45.1627472",26644
2203008,CRISTALANDIA DO PIAUI,22,PI,PIAUI,-10.6525894,-45.1847405,"-10.6525894,-45.1847405",8294
2203107,CRISTINO CASTRO,22,PI,PIAUI,-8.8163934,-44.2211062,"-8.8163934,-44.2211062",10423
2203206,CURIMATA,22,PI,PIAUI,-10.0349005,-44.3033114,"-10.0349005,-44.3033114",11388
2203230,CURRAIS,22,PI,PIAUI,-9.0146796,-44.3999284,"-9.0146796,-44.3999284",4954
2203255,CURRALINHOS,22,PI,PIAUI,-5.6190404,-42.8280018,"-5.6190404,-42.8280018",4443
2203271,CURRAL NOVO DO PIAUI,22,PI,PIAUI,-7.8316503,-40.9006904,"-7.8316503,-40.9006904",5343
2203305,DEMERVAL LOBAO,22,PI,PIAUI,-5.3640643,-42.6739930,"-5.3640643,-42.673993",13817
2203354,DIRCEU ARCOVERDE,22,PI,PIAUI,-9.3413101,-42.4362055,"-9.3413101,-42.4362055",7011
2203404,DOM EXPEDITO LOPES,22,PI,PIAUI,-6.9644926,-41.6481550,"-6.9644926,-41.648155",6904
2203420,DOMINGOS MOURAO,22,PI,PIAUI,-4.2544732,-41.2722903,"-4.2544732,-41.2722903",4355
2203453,DOM INOCENCIO,22,PI,PIAUI,-9.0009167,-41.9740380,"-9.0009167,-41.974038",9556
2203503,ELESBAO VELOSO,22,PI,PIAUI,-6.2032654,-42.1376937,"-6.2032654,-42.1376937",14602
2203602,ELISEU MARTINS,22,PI,PIAUI,-8.0984137,-43.6637067,"-8.0984137,-43.6637067",4915
2203701,ESPERANTINA,22,PI,PIAUI,-3.8950963,-42.2370595,"-3.8950963,-42.2370595",39737
2203750,FARTURA DO PIAUI,22,PI,PIAUI,-9.4839171,-42.7906894,"-9.4839171,-42.7906894",5307
2203800,FLORES DO PIAUI,22,PI,PIAUI,-7.7945002,-42.9262287,"-7.7945002,-42.9262287",4463
2203859,FLORESTA DO PIAUI,22,PI,PIAUI,-7.4679466,-41.8005220,"-7.4679466,-41.800522",2558
2203909,FLORIANO,22,PI,PIAUI,-6.7726534,-43.0070616,"-6.7726534,-43.0070616",59935
2204006,FRANCINOPOLIS,22,PI,PIAUI,-6.3962771,-42.2635654,"-6.3962771,-42.2635654",5348
2204105,FRANCISCO AYRES,22,PI,PIAUI,-6.6217571,-42.6941944,"-6.6217571,-42.6941944",4348
2204154,FRANCISCO MACEDO,22,PI,PIAUI,-7.3276798,-40.7914329,"-7.3276798,-40.7914329",3184
2204204,FRANCISCO SANTOS,22,PI,PIAUI,-6.9944754,-41.1345548,"-6.9944754,-41.1345548",9319
2204303,FRONTEIRAS,22,PI,PIAUI,-7.0886070,-40.6147253,"-7.088607,-40.6147253",11625
2204352,GEMINIANO,22,PI,PIAUI,-7.1580963,-41.3625942,"-7.1580963,-41.3625942",5442
2204402,GILBUES,22,PI,PIAUI,-9.8295491,-45.3389933,"-9.8295491,-45.3389933",10690
2204501,GUADALUPE,22,PI,PIAUI,-6.7879775,-43.5708162,"-6.7879775,-43.5708162",10499
2204550,GUARIBAS,22,PI,PIAUI,-9.3957375,-43.6877965,"-9.3957375,-43.6877965",4562
2204600,HUGO NAPOLEAO,22,PI,PIAUI,-5.9899190,-42.5593218,"-5.989919,-42.5593218",3877
2204659,ILHA GRANDE,22,PI,PIAUI,-2.8520082,-41.8166904,"-2.8520082,-41.8166904",9426
2204709,INHUMA,22,PI,PIAUI,-6.6694502,-41.7096008,"-6.6694502,-41.7096008",15308
2204808,IPIRANGA DO PIAUI,22,PI,PIAUI,-6.8240832,-41.7377279,"-6.8240832,-41.7377279",9811
2204907,ISAIAS COELHO,22,PI,PIAUI,-7.7359201,-41.6765311,"-7.7359201,-41.6765311",8549
2205003,ITAINOPOLIS,22,PI,PIAUI,-7.4477036,-41.4802946,"-7.4477036,-41.4802946",11530
2205102,ITAUEIRA,22,PI,PIAUI,-7.5991089,-43.0278778,"-7.5991089,-43.0278778",11019
2205151,JACOBINA DO PIAUI,22,PI,PIAUI,-7.9356495,-41.2106817,"-7.9356495,-41.2106817",5741
2205201,JAICOS,22,PI,PIAUI,-7.3584791,-41.1446059,"-7.3584791,-41.1446059",19104
2205250,JARDIM DO MULATO,22,PI,PIAUI,-6.0953808,-42.6360340,"-6.0953808,-42.636034",4504
2205276,JATOBA DO PIAUI,22,PI,PIAUI,-4.7700202,-41.8181631,"-4.7700202,-41.8181631",4865
2205300,JERUMENHA,22,PI,PIAUI,-7.0880338,-43.5078454,"-7.0880338,-43.5078454",4452
2205359,JOAO COSTA,22,PI,PIAUI,-8.4887363,-42.4174704,"-8.4887363,-42.4174704",3008
2205409,JOAQUIM PIRES,22,PI,PIAUI,-3.5083129,-42.1925425,"-3.5083129,-42.1925425",14354
2205458,JOCA MARQUES,22,PI,PIAUI,-3.4986388,-42.4317729,"-3.4986388,-42.4317729",5443
2205508,JOSE DE FREITAS,22,PI,PIAUI,-4.7578357,-42.5763777,"-4.7578357,-42.5763777",39208
2205516,JUAZEIRO DO PIAUI,22,PI,PIAUI,-5.1709582,-41.7070148,"-5.1709582,-41.7070148",5478
2205524,JULIO BORGES,22,PI,PIAUI,-10.3273669,-44.2397326,"-10.3273669,-44.2397326",5627
2205532,JUREMA,22,PI,PIAUI,-9.2221109,-43.1293389,"-9.2221109,-43.1293389",4763
2205540,LAGOINHA DO PIAUI,22,PI,PIAUI,-5.8324033,-42.6236706,"-5.8324033,-42.6236706",2845
2205557,LAGOA ALEGRE,22,PI,PIAUI,-4.5134956,-42.6234811,"-4.5134956,-42.6234811",8542
2205565,LAGOA DO BARRO DO PIAUI,22,PI,PIAUI,-8.4798938,-41.5295775,"-8.4798938,-41.5295775",4655
2205573,LAGOA DE SAO FRANCISCO,22,PI,PIAUI,-4.3928921,-41.5988828,"-4.3928921,-41.5988828",6758
2205581,LAGOA DO PIAUI,22,PI,PIAUI,-5.4116544,-42.6450588,"-5.4116544,-42.6450588",4064
2205599,LAGOA DO SITIO,22,PI,PIAUI,-6.5169858,-41.5722134,"-6.5169858,-41.5722134",5177
2205607,LANDRI SALES,22,PI,PIAUI,-7.2609081,-43.9311019,"-7.2609081,-43.9311019",5295
2205706,LUIS CORREIA,22,PI,PIAUI,-2.8818164,-41.6658458,"-2.8818164,-41.6658458",30311
2205805,LUZILANDIA,22,PI,PIAUI,-3.4648887,-42.3689528,"-3.4648887,-42.3689528",25486
2205854,MADEIRO,22,PI,PIAUI,-3.4834038,-42.4994625,"-3.4834038,-42.4994625",8310
2205904,MANOEL EMIDIO,22,PI,PIAUI,-8.0054022,-43.8730321,"-8.0054022,-43.8730321",5349
2205953,MARCOLANDIA,22,PI,PIAUI,-7.4457162,-40.6622862,"-7.4457162,-40.6622862",8492
2206001,MARCOS PARENTE,22,PI,PIAUI,-7.1216428,-43.8892251,"-7.1216428,-43.8892251",4549
2206050,MASSAPE DO PIAUI,22,PI,PIAUI,-7.4628039,-41.1260827,"-7.4628039,-41.1260827",6441
2206100,MATIAS OLIMPIO,22,PI,PIAUI,-3.7150636,-42.5547925,"-3.7150636,-42.5547925",10936
2206209,MIGUEL ALVES,22,PI,PIAUI,-4.1730384,-42.8955677,"-4.1730384,-42.8955677",33760
2206308,MIGUEL LEAO,22,PI,PIAUI,-5.6814610,-42.7371703,"-5.681461,-42.7371703",1246
2206357,MILTON BRANDAO,22,PI,PIAUI,-4.7023518,-41.4473767,"-4.7023518,-41.4473767",6613
2206407,MONSENHOR GIL,22,PI,PIAUI,-5.5609098,-42.6127716,"-5.5609098,-42.6127716",10564
2206506,MONSENHOR HIPOLITO,22,PI,PIAUI,-6.9972682,-41.0297330,"-6.9972682,-41.029733",7749
2206605,MONTE ALEGRE DO PIAUI,22,PI,PIAUI,-9.7483373,-45.3048117,"-9.7483373,-45.3048117",10613
2206654,MORRO CABECA NO TEMPO,22,PI,PIAUI,-9.7236848,-43.9037699,"-9.7236848,-43.9037699",4532
2206670,MORRO DO CHAPEU DO PIAUI,22,PI,PIAUI,-3.7415834,-42.3117139,"-3.7415834,-42.3117139",6796
2206696,MURICI DOS PORTELAS,22,PI,PIAUI,-3.3222798,-42.0904339,"-3.3222798,-42.0904339",9159
2206704,NAZARE DO PIAUI,22,PI,PIAUI,-6.9709737,-42.6707675,"-6.9709737,-42.6707675",7339
2206720,NAZARIA,22,PI,PIAUI,-5.3512851,-42.8152823,"-5.3512851,-42.8152823",8570
2206753,NOSSA SENHORA DE NAZARE,22,PI,PIAUI,-4.6333634,-42.1716341,"-4.6333634,-42.1716341",4870
2206803,NOSSA SENHORA DOS REMEDIOS,22,PI,PIAUI,-3.9792637,-42.6216791,"-3.9792637,-42.6216791",8692
2206902,NOVO ORIENTE DO PIAUI,22,PI,PIAUI,-6.4504258,-41.9219571,"-6.4504258,-41.9219571",6565
2206951,NOVO SANTO ANTONIO,22,PI,PIAUI,-5.2870106,-41.9359942,"-5.2870106,-41.9359942",2991
2207009,OEIRAS,22,PI,PIAUI,-7.0109909,-42.1299376,"-7.0109909,-42.1299376",37029
2207108,OLHO D'AGUA DO PIAUI,22,PI,PIAUI,-5.8494528,-42.5765585,"-5.8494528,-42.5765585",2459
2207207,PADRE MARCOS,22,PI,PIAUI,-7.3534527,-40.9063953,"-7.3534527,-40.9063953",6868
2207306,PAES LANDIM,22,PI,PIAUI,-7.7781616,-42.2552274,"-7.7781616,-42.2552274",4129
2207355,PAJEU DO PIAUI,22,PI,PIAUI,-7.8552420,-42.8220764,"-7.855242,-42.8220764",3389
2207405,PALMEIRA DO PIAUI,22,PI,PIAUI,-8.7252097,-44.2355232,"-8.7252097,-44.2355232",5043
2207504,PALMEIRAIS,22,PI,PIAUI,-5.9761427,-43.0637158,"-5.9761427,-43.0637158",14539
2207553,PAQUETA,22,PI,PIAUI,-7.1041208,-41.7030366,"-7.1041208,-41.7030366",3945
2207603,PARNAGUA,22,PI,PIAUI,-10.2240273,-44.6374373,"-10.2240273,-44.6374373",10791
2207702,PARNAIBA,22,PI,PIAUI,-2.9147515,-41.7661953,"-2.9147515,-41.7661953",153078
2207751,PASSAGEM FRANCA DO PIAUI,22,PI,PIAUI,-5.8574824,-42.4402452,"-5.8574824,-42.4402452",4313
2207777,PATOS DO PIAUI,22,PI,PIAUI,-7.6799549,-41.2454250,"-7.6799549,-41.245425",6392
2207793,PAU D'ARCO DO PIAUI,22,PI,PIAUI,-5.2522265,-42.3884018,"-5.2522265,-42.3884018",4045
2207801,PAULISTANA,22,PI,PIAUI,-8.1389174,-41.1380533,"-8.1389174,-41.1380533",20523
2207850,PAVUSSU,22,PI,PIAUI,-7.9646111,-43.2232032,"-7.9646111,-43.2232032",3677
2207900,PEDRO II,22,PI,PIAUI,-4.4258450,-41.4481840,"-4.425845,-41.448184",38742
2207934,PEDRO LAURENTINO,22,PI,PIAUI,-8.0660549,-42.2874621,"-8.0660549,-42.2874621",2536
2207959,NOVA SANTA RITA,22,PI,PIAUI,-8.0739703,-42.0504725,"-8.0739703,-42.0504725",4374
2208007,PICOS,22,PI,PIAUI,-7.0823544,-41.4685053,"-7.0823544,-41.4685053",78222
2208106,PIMENTEIRAS,22,PI,PIAUI,-6.2366098,-41.4192948,"-6.2366098,-41.4192948",12127
2208205,PIO IX,22,PI,PIAUI,-6.8351921,-40.6148654,"-6.8351921,-40.6148654",18425
2208304,PIRACURUCA,22,PI,PIAUI,-3.9304804,-41.7150099,"-3.9304804,-41.7150099",28791
2208403,PIRIPIRI,22,PI,PIAUI,-4.2732339,-41.7785173,"-4.2732339,-41.7785173",63742
2208502,PORTO,22,PI,PIAUI,-3.8929066,-42.7078344,"-3.8929066,-42.7078344",12568
2208551,PORTO ALEGRE DO PIAUI,22,PI,PIAUI,-6.9717253,-44.1965104,"-6.9717253,-44.1965104",2710
2208601,PRATA DO PIAUI,22,PI,PIAUI,-5.6692702,-42.2067899,"-5.6692702,-42.2067899",3151
2208650,QUEIMADA NOVA,22,PI,PIAUI,-8.5805141,-41.4173529,"-8.5805141,-41.4173529",8992
2208700,REDENCAO DO GURGUEIA,22,PI,PIAUI,-9.4862001,-44.5840178,"-9.4862001,-44.5840178",8778
2208809,REGENERACAO,22,PI,PIAUI,-6.2316966,-42.6871407,"-6.2316966,-42.6871407",17978
2208858,RIACHO FRIO,22,PI,PIAUI,-10.1298278,-44.9527078,"-10.1298278,-44.9527078",4312
2208874,RIBEIRA DO PIAUI,22,PI,PIAUI,-7.6912987,-42.7130999,"-7.6912987,-42.7130999",4477
2208908,RIBEIRO GONCALVES,22,PI,PIAUI,-7.5603126,-45.2417148,"-7.5603126,-45.2417148",7341
2209005,RIO GRANDE DO PIAUI,22,PI,PIAUI,-7.7767595,-43.1400070,"-7.7767595,-43.140007",6432
2209104,SANTA CRUZ DO PIAUI,22,PI,PIAUI,-7.1827307,-41.7657024,"-7.1827307,-41.7657024",6240
2209153,SANTA CRUZ DOS MILAGRES,22,PI,PIAUI,-5.8019654,-41.9590554,"-5.8019654,-41.9590554",4019
2209203,SANTA FILOMENA,22,PI,PIAUI,-9.1176912,-45.9199551,"-9.1176912,-45.9199551",6253
2209302,SANTA LUZ,22,PI,PIAUI,-8.9505200,-44.1312995,"-8.95052,-44.1312995",5860
2209351,SANTANA DO PIAUI,22,PI,PIAUI,-6.9458076,-41.5190275,"-6.9458076,-41.5190275",4634
2209377,SANTA ROSA DO PIAUI,22,PI,PIAUI,-6.7983399,-42.2799407,"-6.7983399,-42.2799407",5257
2209401,SANTO ANTONIO DE LISBOA,22,PI,PIAUI,-6.9831426,-41.2283884,"-6.9831426,-41.2283884",6415
2209450,SANTO ANTONIO DOS MILAGRES,22,PI,PIAUI,-6.0475440,-42.7117391,"-6.047544,-42.7117391",2161
2209500,SANTO INACIO DO PIAUI,22,PI,PIAUI,-7.4224725,-41.9146001,"-7.4224725,-41.9146001",3798
2209559,SAO BRAZ DO PIAUI,22,PI,PIAUI,-9.0650020,-42.9982797,"-9.065002,-42.9982797",4448
2209609,SAO FELIX DO PIAUI,22,PI,PIAUI,-5.9324414,-42.1119867,"-5.9324414,-42.1119867",2942
2209658,SAO FRANCISCO DE ASSIS DO PIAUI,22,PI,PIAUI,-8.2374760,-41.6863320,"-8.237476,-41.686332",5755
2209708,SAO FRANCISCO DO PIAUI,22,PI,PIAUI,-7.2460489,-42.5414016,"-7.2460489,-42.5414016",6423
2209757,SAO GONCALO DO GURGUEIA,22,PI,PIAUI,-10.0303022,-45.3032826,"-10.0303022,-45.3032826",3041
2209807,SAO GONCALO DO PIAUI,22,PI,PIAUI,-5.9970067,-42.7041762,"-5.9970067,-42.7041762",5015
2209856,SAO JOAO DA CANABRAVA,22,PI,PIAUI,-6.8175686,-41.3461715,"-6.8175686,-41.3461715",4608
2209872,SAO JOAO DA FRONTEIRA,22,PI,PIAUI,-3.9390215,-41.2592109,"-3.9390215,-41.2592109",6042
2209906,SAO JOAO DA SERRA,22,PI,PIAUI,-5.5163795,-41.8967078,"-5.5163795,-41.8967078",6139
2209955,SAO JOAO DA VARJOTA,22,PI,PIAUI,-6.9157923,-41.8637609,"-6.9157923,-41.8637609",4840
2209971,SAO JOAO DO ARRAIAL,22,PI,PIAUI,-3.8126524,-42.4508146,"-3.8126524,-42.4508146",7989
2210003,SAO JOAO DO PIAUI,22,PI,PIAUI,-8.3601426,-42.2487642,"-8.3601426,-42.2487642",20601
2210052,SAO JOSE DO DIVINO,22,PI,PIAUI,-3.8108544,-41.8297546,"-3.8108544,-41.8297546",5346
2210102,SAO JOSE DO PEIXE,22,PI,PIAUI,-7.4938166,-42.5661301,"-7.4938166,-42.5661301",3745
2210201,SAO JOSE DO PIAUI,22,PI,PIAUI,-6.8725567,-41.4772864,"-6.8725567,-41.4772864",6705
2210300,SAO JULIAO,22,PI,PIAUI,-7.0834413,-40.8362405,"-7.0834413,-40.8362405",6363
2210359,SAO LOURENCO DO PIAUI,22,PI,PIAUI,-9.1680968,-42.5452890,"-9.1680968,-42.545289",4573
2210375,SAO LUIS DO PIAUI,22,PI,PIAUI,-6.8256095,-41.3229490,"-6.8256095,-41.322949",2644
2210383,SAO MIGUEL DA BAIXA GRANDE,22,PI,PIAUI,-5.8648279,-42.1864332,"-5.8648279,-42.1864332",2452
2210391,SAO MIGUEL DO FIDALGO,22,PI,PIAUI,-7.5834113,-42.3709452,"-7.5834113,-42.3709452",3039
2210409,SAO MIGUEL DO TAPUIO,22,PI,PIAUI,-5.5015262,-41.3214276,"-5.5015262,-41.3214276",17662
2210508,SAO PEDRO DO PIAUI,22,PI,PIAUI,-5.9237680,-42.7195114,"-5.923768,-42.7195114",14291
2210607,SAO RAIMUNDO NONATO,22,PI,PIAUI,-9.0150522,-42.6886909,"-9.0150522,-42.6886909",34710
2210623,SEBASTIAO BARROS,22,PI,PIAUI,-10.8149125,-44.8330743,"-10.8149125,-44.8330743",3469
2210631,SEBASTIAO LEAL,22,PI,PIAUI,-7.5679515,-44.0648363,"-7.5679515,-44.0648363",4294
2210656,SIGEFREDO PACHECO,22,PI,PIAUI,-4.9148779,-41.7304149,"-4.9148779,-41.7304149",10041
2210706,SIMOES,22,PI,PIAUI,-7.5970469,-40.8176003,"-7.5970469,-40.8176003",14633
2210805,SIMPLICIO MENDES,22,PI,PIAUI,-7.8605280,-41.9081183,"-7.860528,-41.9081183",12711
2210904,SOCORRO DO PIAUI,22,PI,PIAUI,-7.8631876,-42.4994689,"-7.8631876,-42.4994689",4569
2210938,SUSSUAPARA,22,PI,PIAUI,-6.9970001,-41.3700042,"-6.9970001,-41.3700042",6730
2210953,TAMBORIL DO PIAUI,22,PI,PIAUI,-8.4007816,-42.9112793,"-8.4007816,-42.9112793",2919
2210979,TANQUE DO PIAUI,22,PI,PIAUI,-6.5971682,-42.2840316,"-6.5971682,-42.2840316",2765
2211001,TERESINA,22,PI,PIAUI,-5.0896403,-42.8095880,"-5.0896403,-42.809588",864845
2211100,UNIAO,22,PI,PIAUI,-4.5892553,-42.8593348,"-4.5892553,-42.8593348",44485
2211209,URUCUI,22,PI,PIAUI,-7.2363099,-44.5553870,"-7.2363099,-44.555387",21558
2211308,VALENCA DO PIAUI,22,PI,PIAUI,-6.4048149,-41.7382812,"-6.4048149,-41.7382812",20918
2211357,VARZEA BRANCA,22,PI,PIAUI,-9.2371884,-42.9643784,"-9.2371884,-42.9643784",4947
2211407,VARZEA GRANDE,22,PI,PIAUI,-6.5460829,-42.2480401,"-6.5460829,-42.2480401",4391
2211506,VERA MENDES,22,PI,PIAUI,-7.6041627,-41.4827889,"-7.6041627,-41.4827889",3077
2211605,VILA NOVA DO PIAUI,22,PI,PIAUI,-7.1429224,-40.9378562,"-7.1429224,-40.9378562",2971
2211704,WALL FERRAZ,22,PI,PIAUI,-7.2339199,-41.9114070,"-7.2339199,-41.911407",4462
2300101,ABAIARA,23,CE,CEARA,-7.3607808,-39.0487878,"-7.3607808,-39.0487878",11737
2300150,ACARAPE,23,CE,CEARA,-4.2237866,-38.7071663,"-4.2237866,-38.7071663",14929
2300200,ACARAU,23,CE,CEARA,-2.8869514,-40.1194713,"-2.8869514,-40.1194713",62641
2300309,ACOPIARA,23,CE,CEARA,-6.0936464,-39.4543204,"-6.0936464,-39.4543204",54270
2300408,AIUABA,23,CE,CEARA,-6.5710836,-40.1212278,"-6.5710836,-40.1212278",17399
2300507,ALCANTARAS,23,CE,CEARA,-3.5862470,-40.5457641,"-3.586247,-40.5457641",11714
2300606,ALTANEIRA,23,CE,CEARA,-6.9980933,-39.7385742,"-6.9980933,-39.7385742",7586
2300705,ALTO SANTO,23,CE,CEARA,-5.5190371,-38.2719351,"-5.5190371,-38.2719351",17146
2300754,AMONTADA,23,CE,CEARA,-3.3634586,-39.8284791,"-3.3634586,-39.8284791",43452
2300804,ANTONINA DO NORTE,23,CE,CEARA,-6.7754187,-39.9879345,"-6.7754187,-39.9879345",7353
2300903,APUIARES,23,CE,CEARA,-3.9460303,-39.4313298,"-3.9460303,-39.4313298",14600
2301000,AQUIRAZ,23,CE,CEARA,-3.9063117,-38.3875040,"-3.9063117,-38.387504",80271
2301109,ARACATI,23,CE,CEARA,-4.5582590,-37.7678940,"-4.558259,-37.767894",74547
2301208,ARACOIABA,23,CE,CEARA,-4.3702577,-38.8084313,"-4.3702577,-38.8084313",26469
2301257,ARARENDA,23,CE,CEARA,-4.7504395,-40.8303611,"-4.7504395,-40.8303611",10935
2301307,ARARIPE,23,CE,CEARA,-7.2128610,-40.1359222,"-7.212861,-40.1359222",21600
2301406,ARATUBA,23,CE,CEARA,-4.4195958,-39.0463737,"-4.4195958,-39.0463737",11847
2301505,ARNEIROZ,23,CE,CEARA,-6.3235099,-40.1603859,"-6.3235099,-40.1603859",7840
2301604,ASSARE,23,CE,CEARA,-6.8746791,-39.8741385,"-6.8746791,-39.8741385",23417
2301703,AURORA,23,CE,CEARA,-6.9426019,-38.9693765,"-6.9426019,-38.9693765",24654
2301802,BAIXIO,23,CE,CEARA,-6.7303544,-38.7170095,"-6.7303544,-38.7170095",6288
2301851,BANABUIU,23,CE,CEARA,-5.3046404,-38.9197660,"-5.3046404,-38.919766",18197
2301901,BARBALHA,23,CE,CEARA,-7.3121067,-39.3036427,"-7.3121067,-39.3036427",59732
2301950,BARREIRA,23,CE,CEARA,-4.2883361,-38.6410940,"-4.2883361,-38.641094",22425
2302008,BARRO,23,CE,CEARA,-7.1713587,-38.7742136,"-7.1713587,-38.7742136",22680
2302057,BARROQUINHA,23,CE,CEARA,-3.0200371,-41.1339229,"-3.0200371,-41.1339229",15017
2302107,BATURITE,23,CE,CEARA,-4.3290203,-38.8821055,"-4.3290203,-38.8821055",35750
2302206,BEBERIBE,23,CE,CEARA,-4.1810469,-38.1298101,"-4.1810469,-38.1298101",53573
2302305,BELA CRUZ,23,CE,CEARA,-3.0529129,-40.1675820,"-3.0529129,-40.167582",32591
2302404,BOA VIAGEM,23,CE,CEARA,-5.1261877,-39.7300055,"-5.1261877,-39.7300055",54470
2302503,BREJO SANTO,23,CE,CEARA,-7.4909841,-38.9859152,"-7.4909841,-38.9859152",49477
2302602,CAMOCIM,23,CE,CEARA,-2.9009918,-40.8427389,"-2.9009918,-40.8427389",63661
2302701,CAMPOS SALES,23,CE,CEARA,-7.0742675,-40.3740367,"-7.0742675,-40.3740367",27426
2302800,CANINDE,23,CE,CEARA,-4.3547946,-39.3108516,"-4.3547946,-39.3108516",76997
2302909,CAPISTRANO,23,CE,CEARA,-4.4644692,-38.8956734,"-4.4644692,-38.8956734",17738
2303006,CARIDADE,23,CE,CEARA,-4.2316487,-39.1946515,"-4.2316487,-39.1946515",22547
2303105,CARIRE,23,CE,CEARA,-3.9485840,-40.4760280,"-3.948584,-40.476028",18448
2303204,CARIRIACU,23,CE,CEARA,-7.0417053,-39.2835527,"-7.0417053,-39.2835527",26965
2303303,CARIUS,23,CE,CEARA,-6.5348688,-39.4966658,"-6.5348688,-39.4966658",18699
2303402,CARNAUBAL,23,CE,CEARA,-4.1611842,-40.9412317,"-4.1611842,-40.9412317",17606
2303501,CASCAVEL,23,CE,CEARA,-4.1296660,-38.2411780,"-4.129666,-38.241178",71743
2303600,CATARINA,23,CE,CEARA,-6.1341578,-39.8795321,"-6.1341578,-39.8795321",20698
2303659,CATUNDA,23,CE,CEARA,-4.6494224,-40.2002603,"-4.6494224,-40.2002603",10342
2303709,CAUCAIA,23,CE,CEARA,-3.7300563,-38.6593082,"-3.7300563,-38.6593082",361400
2303808,CEDRO,23,CE,CEARA,-6.6065382,-39.0599487,"-6.6065382,-39.0599487",25557
2303907,CHAVAL,23,CE,CEARA,-3.0339874,-41.2438452,"-3.0339874,-41.2438452",13069
2303931,CHORO,23,CE,CEARA,-4.8435726,-39.1393071,"-4.8435726,-39.1393071",13521
2303956,CHOROZINHO,23,CE,CEARA,-4.3010895,-38.4976923,"-4.3010895,-38.4976923",20264
2304004,COREAU,23,CE,CEARA,-3.5519794,-40.6528409,"-3.5519794,-40.6528409",23136
2304103,CRATEUS,23,CE,CEARA,-5.1782451,-40.6696545,"-5.1782451,-40.6696545",75074
2304202,CRATO,23,CE,CEARA,-7.2369112,-39.4149236,"-7.2369112,-39.4149236",132123
2304236,CROATA,23,CE,CEARA,-6.0545671,-38.8737630,"-6.0545671,-38.873763",18063
2304251,CRUZ,23,CE,CEARA,-2.9181280,-40.1759810,"-2.918128,-40.175981",24827
2304269,DEPUTADO IRAPUAN PINHEIRO,23,CE,CEARA,-5.9173532,-39.2672104,"-5.9173532,-39.2672104",9625
2304277,ERERE,23,CE,CEARA,-6.0311304,-38.3482173,"-6.0311304,-38.3482173",7198
2304285,EUSEBIO,23,CE,CEARA,-3.8889838,-38.4546585,"-3.8889838,-38.4546585",53618
2304301,FARIAS BRITO,23,CE,CEARA,-6.9272823,-39.5714222,"-6.9272823,-39.5714222",19450
2304350,FORQUILHA,23,CE,CEARA,-3.7994470,-40.2634050,"-3.799447,-40.263405",24218
2304400,FORTALEZA,23,CE,CEARA,-3.7304512,-38.5217989,"-3.7304512,-38.5217989",2669342
2304459,FORTIM,23,CE,CEARA,-4.4512560,-37.7980560,"-4.451256,-37.798056",16480
2304509,FRECHEIRINHA,23,CE,CEARA,-3.7555720,-40.8180190,"-3.755572,-40.818019",14072
2304608,GENERAL SAMPAIO,23,CE,CEARA,-4.0503563,-39.4484058,"-4.0503563,-39.4484058",7618
2304657,GRACA,23,CE,CEARA,-4.0453849,-40.7527195,"-4.0453849,-40.7527195",14399
2304707,GRANJA,23,CE,CEARA,-3.1212057,-40.8284124,"-3.1212057,-40.8284124",54748
2304806,GRANJEIRO,23,CE,CEARA,-6.8889524,-39.2179315,"-6.8889524,-39.2179315",4844
2304905,GROAIRAS,23,CE,CEARA,-3.9157768,-40.3855093,"-3.9157768,-40.3855093",11068
2304954,GUAIUBA,23,CE,CEARA,-4.0412656,-38.6369079,"-4.0412656,-38.6369079",26064
2305001,GUARACIABA DO NORTE,23,CE,CEARA,-4.1632924,-40.7495985,"-4.1632924,-40.7495985",40642
2305100,GUARAMIRANGA,23,CE,CEARA,-4.2615431,-38.9339337,"-4.2615431,-38.9339337",5193
2305209,HIDROLANDIA,23,CE,CEARA,-4.4084745,-40.4065472,"-4.4084745,-40.4065472",19978
2305233,HORIZONTE,23,CE,CEARA,-4.0964618,-38.4965574,"-4.0964618,-38.4965574",67337
2305266,IBARETAMA,23,CE,CEARA,-4.8194345,-38.8208476,"-4.8194345,-38.8208476",13353
2305308,IBIAPINA,23,CE,CEARA,-3.9228792,-40.8890296,"-3.9228792,-40.8890296",24997
2305332,IBICUITINGA,23,CE,CEARA,-4.9751759,-38.6368754,"-4.9751759,-38.6368754",12525
2305357,ICAPUI,23,CE,CEARA,-4.7158474,-37.3535365,"-4.7158474,-37.3535365",19934
2305407,ICO,23,CE,CEARA,-6.4003992,-38.8575946,"-6.4003992,-38.8575946",68018
2305506,IGUATU,23,CE,CEARA,-6.3619340,-39.2972233,"-6.361934,-39.2972233",102498
2305605,INDEPENDENCIA,23,CE,CEARA,-5.3958538,-40.3108896,"-5.3958538,-40.3108896",26178
2305654,IPAPORANGA,23,CE,CEARA,-4.9032270,-40.7600790,"-4.903227,-40.760079",11593
2305704,IPAUMIRIM,23,CE,CEARA,-6.7883197,-38.7172034,"-6.7883197,-38.7172034",12463
2305803,IPU,23,CE,CEARA,-4.3239824,-40.7097463,"-4.3239824,-40.7097463",41964
2305902,IPUEIRAS,23,CE,CEARA,-4.5427141,-40.7168461,"-4.5427141,-40.7168461",38166
2306009,IRACEMA,23,CE,CEARA,-5.8106219,-38.3028294,"-5.8106219,-38.3028294",14297
2306108,IRAUCUBA,23,CE,CEARA,-3.7466828,-39.7840904,"-3.7466828,-39.7840904",24156
2306207,ITAICABA,23,CE,CEARA,-4.6805400,-37.8239968,"-4.68054,-37.8239968",7827
2306256,ITAITINGA,23,CE,CEARA,-3.9657680,-38.5297630,"-3.965768,-38.529763",37980
2306306,ITAPAJE,23,CE,CEARA,-3.6841324,-39.5851265,"-3.6841324,-39.5851265",52675
2306405,ITAPIPOCA,23,CE,CEARA,-3.4993290,-39.5835710,"-3.499329,-39.583571",129358
2306504,ITAPIUNA,23,CE,CEARA,-4.5654191,-38.9211537,"-4.5654191,-38.9211537",20382
2306553,ITAREMA,23,CE,CEARA,-2.9224558,-39.9129042,"-2.9224558,-39.9129042",41826
2306603,ITATIRA,23,CE,CEARA,-4.5305423,-39.6210540,"-4.5305423,-39.621054",21647
2306702,JAGUARETAMA,23,CE,CEARA,-5.6092417,-38.7630077,"-5.6092417,-38.7630077",18162
2306801,JAGUARIBARA,23,CE,CEARA,-5.4544940,-38.4679295,"-5.454494,-38.4679295",11401
2306900,JAGUARIBE,23,CE,CEARA,-5.8854585,-38.6212957,"-5.8854585,-38.6212957",34682
2307007,JAGUARUANA,23,CE,CEARA,-4.8315080,-37.7809970,"-4.831508,-37.780997",33705
2307106,JARDIM,23,CE,CEARA,-7.5838966,-39.2797130,"-7.5838966,-39.279713",27174
2307205,JATI,23,CE,CEARA,-7.6894344,-39.0060740,"-7.6894344,-39.006074",8111
2307254,JIJOCA DE JERICOACOARA,23,CE,CEARA,-2.8986278,-40.4506081,"-2.8986278,-40.4506081",19816
2307304,JUAZEIRO DO NORTE,23,CE,CEARA,-7.2153453,-39.3153336,"-7.2153453,-39.3153336",274207
2307403,JUCAS,23,CE,CEARA,-6.5224934,-39.5247183,"-6.5224934,-39.5247183",24833
2307502,LAVRAS DA MANGABEIRA,23,CE,CEARA,-6.7519554,-38.9634019,"-6.7519554,-38.9634019",31508
2307601,LIMOEIRO DO NORTE,23,CE,CEARA,-5.1455607,-38.0984936,"-5.1455607,-38.0984936",59540
2307635,MADALENA,23,CE,CEARA,-4.8542961,-39.5766436,"-4.8542961,-39.5766436",19691
2307650,MARACANAU,23,CE,CEARA,-3.8779438,-38.6247697,"-3.8779438,-38.6247697",227886
2307700,MARANGUAPE,23,CE,CEARA,-3.8922967,-38.6835427,"-3.8922967,-38.6835427",128978
2307809,MARCO,23,CE,CEARA,-3.1221945,-40.1514585,"-3.1221945,-40.1514585",27361
2307908,MARTINOPOLE,23,CE,CEARA,-3.2235114,-40.6958832,"-3.2235114,-40.6958832",11233
2308005,MASSAPE,23,CE,CEARA,-6.1019627,-38.8731660,"-6.1019627,-38.873166",38737
2308104,MAURITI,23,CE,CEARA,-7.3870095,-38.7737751,"-7.3870095,-38.7737751",47962
2308203,MERUOCA,23,CE,CEARA,-3.5390209,-40.4546107,"-3.5390209,-40.4546107",15057
2308302,MILAGRES,23,CE,CEARA,-7.3106846,-38.9447146,"-7.3106846,-38.9447146",27512
2308351,MILHA,23,CE,CEARA,-5.6834601,-39.1970885,"-5.6834601,-39.1970885",13155
2308377,MIRAIMA,23,CE,CEARA,-3.5686740,-39.9662670,"-3.568674,-39.966267",13818
2308401,MISSAO VELHA,23,CE,CEARA,-7.2484910,-39.1434843,"-7.248491,-39.1434843",36442
2308500,MOMBACA,23,CE,CEARA,-5.7450899,-39.6293519,"-5.7450899,-39.6293519",43797
2308609,MONSENHOR TABOSA,23,CE,CEARA,-4.7879512,-40.0639490,"-4.7879512,-40.063949",17234
2308708,MORADA NOVA,23,CE,CEARA,-5.1076699,-38.3727852,"-5.1076699,-38.3727852",61890
2308807,MORAUJO,23,CE,CEARA,-3.4657654,-40.6791460,"-3.4657654,-40.679146",8724
2308906,MORRINHOS,23,CE,CEARA,-3.2275749,-40.1280783,"-3.2275749,-40.1280783",22534
2309003,MUCAMBO,23,CE,CEARA,-3.9043285,-40.7454425,"-3.9043285,-40.7454425",14537
2309102,MULUNGU,23,CE,CEARA,-4.3052327,-38.9957787,"-4.3052327,-38.9957787",10823
2309201,NOVA OLINDA,23,CE,CEARA,-7.0934174,-39.6789815,"-7.0934174,-39.6789815",15565
2309300,NOVA RUSSAS,23,CE,CEARA,-4.7051681,-40.5655190,"-4.7051681,-40.565519",32328
2309409,NOVO ORIENTE,23,CE,CEARA,-5.5350339,-40.7748902,"-5.5350339,-40.7748902",28607
2309458,OCARA,23,CE,CEARA,-4.4910653,-38.5964829,"-4.4910653,-38.5964829",25703
2309508,OROS,23,CE,CEARA,-6.2427541,-38.9141151,"-6.2427541,-38.9141151",21427
2309607,PACAJUS,23,CE,CEARA,-4.1710730,-38.4649880,"-4.171073,-38.464988",72203
2309706,PACATUBA,23,CE,CEARA,-3.9841000,-38.6180383,"-3.9841,-38.6180383",83432
2309805,PACOTI,23,CE,CEARA,-4.2253561,-38.9208352,"-4.2253561,-38.9208352",12261
2309904,PACUJA,23,CE,CEARA,-3.9802066,-40.6986251,"-3.9802066,-40.6986251",6533
2310001,PALHANO,23,CE,CEARA,-4.7449408,-37.9608401,"-4.7449408,-37.9608401",9386
2310100,PALMACIA,23,CE,CEARA,-4.1478012,-38.8460317,"-4.1478012,-38.8460317",13322
2310209,PARACURU,23,CE,CEARA,-3.4143600,-39.0300280,"-3.41436,-39.030028",35076
2310258,PARAIPABA,23,CE,CEARA,-3.4379870,-39.1478680,"-3.437987,-39.147868",32744
2310308,PARAMBU,23,CE,CEARA,-6.2123856,-40.6954982,"-6.2123856,-40.6954982",31521
2310407,PARAMOTI,23,CE,CEARA,-4.0964461,-39.2390411,"-4.0964461,-39.2390411",12226
2310506,PEDRA BRANCA,23,CE,CEARA,-5.4556740,-39.7166286,"-5.455674,-39.7166286",43258
2310605,PENAFORTE,23,CE,CEARA,-7.8288372,-39.0751908,"-7.8288372,-39.0751908",9077
2310704,PENTECOSTE,23,CE,CEARA,-3.7952282,-39.2713219,"-3.7952282,-39.2713219",37751
2310803,PEREIRO,23,CE,CEARA,-6.0462690,-38.4604192,"-6.046269,-38.4604192",16307
2310852,PINDORETAMA,23,CE,CEARA,-4.0265183,-38.3066829,"-4.0265183,-38.3066829",20567
2310902,PIQUET CARNEIRO,23,CE,CEARA,-5.8002510,-39.4170170,"-5.800251,-39.417017",16959
2310951,PIRES FERREIRA,23,CE,CEARA,-4.2449329,-40.6446621,"-4.2449329,-40.6446621",10951
2311009,PORANGA,23,CE,CEARA,-4.7446727,-40.9249168,"-4.7446727,-40.9249168",12336
2311108,PORTEIRAS,23,CE,CEARA,-7.5341572,-39.1153149,"-7.5341572,-39.1153149",14996
2311207,POTENGI,23,CE,CEARA,-7.0915205,-40.0268241,"-7.0915205,-40.0268241",11045
2311231,POTIRETAMA,23,CE,CEARA,-5.7226924,-38.1541070,"-5.7226924,-38.154107",6419
2311264,QUITERIANOPOLIS,23,CE,CEARA,-5.8458117,-40.7021812,"-5.8458117,-40.7021812",21084
2311306,QUIXADA,23,CE,CEARA,-4.9706021,-39.0158403,"-4.9706021,-39.0158403",87728
2311355,QUIXELO,23,CE,CEARA,-6.2511238,-39.1995458,"-6.2511238,-39.1995458",16178
2311405,QUIXERAMOBIM,23,CE,CEARA,-5.1983553,-39.2955573,"-5.1983553,-39.2955573",81082
2311504,QUIXERE,23,CE,CEARA,-5.0742841,-37.9892825,"-5.0742841,-37.9892825",22149
2311603,REDENCAO,23,CE,CEARA,-4.2243979,-38.7278461,"-4.2243979,-38.7278461",29053
2311702,RERIUTABA,23,CE,CEARA,-4.1418352,-40.5824356,"-4.1418352,-40.5824356",18491
2311801,RUSSAS,23,CE,CEARA,-4.9354279,-37.9783838,"-4.9354279,-37.9783838",78194
2311900,SABOEIRO,23,CE,CEARA,-6.5395640,-39.9047802,"-6.539564,-39.9047802",15819
2311959,SALITRE,23,CE,CEARA,-7.2854450,-40.4573060,"-7.285445,-40.457306",16554
2312007,SANTANA DO ACARAU,23,CE,CEARA,-3.4596492,-40.2090987,"-3.4596492,-40.2090987",32452
2312106,SANTANA DO CARIRI,23,CE,CEARA,-7.1861693,-39.7374262,"-7.1861693,-39.7374262",17700
2312205,SANTA QUITERIA,23,CE,CEARA,-4.3336553,-40.1544913,"-4.3336553,-40.1544913",43703
2312304,SAO BENEDITO,23,CE,CEARA,-4.0479952,-40.8643488,"-4.0479952,-40.8643488",47903
2312403,SAO GONCALO DO AMARANTE,23,CE,CEARA,-3.6099755,-38.9687182,"-3.6099755,-38.9687182",48422
2312502,SAO JOAO DO JAGUARIBE,23,CE,CEARA,-5.2719441,-38.2719930,"-5.2719441,-38.271993",7645
2312601,SAO LUIS DO CURU,23,CE,CEARA,-3.6721635,-39.2411444,"-3.6721635,-39.2411444",13000
2312700,SENADOR POMPEU,23,CE,CEARA,-5.5874386,-39.3730901,"-5.5874386,-39.3730901",25496
2312809,SENADOR SA,23,CE,CEARA,-3.3528000,-40.4644057,"-3.3528,-40.4644057",7623
2312908,SOBRAL,23,CE,CEARA,-3.6879135,-40.3456372,"-3.6879135,-40.3456372",208935
2313005,SOLONOPOLE,23,CE,CEARA,-5.7329092,-39.0098669,"-5.7329092,-39.0098669",18324
2313104,TABULEIRO DO NORTE,23,CE,CEARA,-5.2440865,-38.1284605,"-5.2440865,-38.1284605",30697
2313203,TAMBORIL,23,CE,CEARA,-4.8330075,-40.3210323,"-4.8330075,-40.3210323",26251
2313252,TARRAFAS,23,CE,CEARA,-6.6819901,-39.7575709,"-6.6819901,-39.7575709",8592
2313302,TAUA,23,CE,CEARA,-6.0031372,-40.2947268,"-6.0031372,-40.2947268",58859
2313351,TEJUCUOCA,23,CE,CEARA,-3.9884273,-39.5797395,"-3.9884273,-39.5797395",19187
2313401,TIANGUA,23,CE,CEARA,-3.7307332,-41.0004019,"-3.7307332,-41.0004019",75946
2313500,TRAIRI,23,CE,CEARA,-3.2741504,-39.2649188,"-3.2741504,-39.2649188",55918
2313559,TURURU,23,CE,CEARA,-3.5985489,-39.4358101,"-3.5985489,-39.4358101",16271
2313609,UBAJARA,23,CE,CEARA,-3.8534468,-40.9185642,"-3.8534468,-40.9185642",34792
2313708,UMARI,23,CE,CEARA,-6.6465102,-38.6995155,"-6.6465102,-38.6995155",7733
2313757,UMIRIM,23,CE,CEARA,-3.6777738,-39.3487250,"-3.6777738,-39.348725",19825
2313807,URUBURETAMA,23,CE,CEARA,-3.6235302,-39.5050697,"-3.6235302,-39.5050697",21850
2313906,URUOCA,23,CE,CEARA,-3.3147591,-40.5589570,"-3.3147591,-40.558957",13840
2313955,VARJOTA,23,CE,CEARA,-4.1958345,-40.4735305,"-4.1958345,-40.4735305",18420
2314003,VARZEA ALEGRE,23,CE,CEARA,-6.7936089,-39.2989333,"-6.7936089,-39.2989333",40721
2314102,VICOSA DO CEARA,23,CE,CEARA,-3.5667684,-41.0915040,"-3.5667684,-41.091504",60889
2400109,ACARI,24,RN,RIO GRANDE DO NORTE,-6.4364689,-36.6394777,"-6.4364689,-36.6394777",11136
2400208,ACU,24,RN,RIO GRANDE DO NORTE,-5.9109887,-35.5170822,"-5.9109887,-35.5170822",58017
2400307,AFONSO BEZERRA,24,RN,RIO GRANDE DO NORTE,-5.5001998,-36.5062716,"-5.5001998,-36.5062716",11035
2400406,AGUA NOVA,24,RN,RIO GRANDE DO NORTE,-6.2063221,-38.2912678,"-6.2063221,-38.2912678",3252
2400505,ALEXANDRIA,24,RN,RIO GRANDE DO NORTE,-6.4147790,-38.0135516,"-6.414779,-38.0135516",13577
2400604,ALMINO AFONSO,24,RN,RIO GRANDE DO NORTE,-6.1544208,-37.7649018,"-6.1544208,-37.7649018",4735
2400703,ALTO DO RODRIGUES,24,RN,RIO GRANDE DO NORTE,-5.2908680,-36.7616726,"-5.290868,-36.7616726",14529
2400802,ANGICOS,24,RN,RIO GRANDE DO NORTE,-5.6666344,-36.6009064,"-5.6666344,-36.6009064",11714
2400901,ANTONIO MARTINS,24,RN,RIO GRANDE DO NORTE,-6.2155812,-37.8890129,"-6.2155812,-37.8890129",7145
2401008,APODI,24,RN,RIO GRANDE DO NORTE,-5.6631109,-37.7969270,"-5.6631109,-37.796927",35845
2401107,AREIA BRANCA,24,RN,RIO GRANDE DO NORTE,-4.9506652,-37.1263312,"-4.9506652,-37.1263312",27774
2401206,ARES,24,RN,RIO GRANDE DO NORTE,-6.1969216,-35.1642968,"-6.1969216,-35.1642968",14306
2401305,AUGUSTO SEVERO,24,RN,RIO GRANDE DO NORTE,-5.8697839,-35.3609613,"-5.8697839,-35.3609613",9655
2401404,BAIA FORMOSA,24,RN,RIO GRANDE DO NORTE,-6.3691885,-35.0063741,"-6.3691885,-35.0063741",9271
2401453,BARAUNA,24,RN,RIO GRANDE DO NORTE,-5.0775002,-37.6175200,"-5.0775002,-37.61752",28374
2401503,BARCELONA,24,RN,RIO GRANDE DO NORTE,-5.9814531,-35.9305499,"-5.9814531,-35.9305499137983",3998
2401602,BENTO FERNANDES,24,RN,RIO GRANDE DO NORTE,-5.6926846,-35.8207423,"-5.6926846,-35.8207423",5497
2401651,BODO,24,RN,RIO GRANDE DO NORTE,-5.9866104,-36.4134824,"-5.9866104,-36.4134824",2223
2401701,BOM JESUS,24,RN,RIO GRANDE DO NORTE,-5.7958754,-37.4150689,"-5.7958754,-37.4150689",10210
2401800,BREJINHO,24,RN,RIO GRANDE DO NORTE,-6.1957907,-35.3583019,"-6.1957907,-35.3583019",12699
2401859,CAICARA DO NORTE,24,RN,RIO GRANDE DO NORTE,-5.0645017,-36.0561226,"-5.0645017,-36.0561226",6549
2401909,CAICARA DO RIO DO VENTO,24,RN,RIO GRANDE DO NORTE,-5.7579680,-36.0008900,"-5.757968,-36.00089",3684
2402006,CAICO,24,RN,RIO GRANDE DO NORTE,-6.4594544,-37.0971911,"-6.4594544,-37.0971911",67952
2402105,CAMPO REDONDO,24,RN,RIO GRANDE DO NORTE,-6.2420373,-36.1830606,"-6.2420373,-36.1830606",11217
2402204,CANGUARETAMA,24,RN,RIO GRANDE DO NORTE,-6.3751942,-35.1374630,"-6.3751942,-35.137463",34276
2402303,CARAUBAS,24,RN,RIO GRANDE DO NORTE,-5.7889323,-37.5548751,"-5.7889323,-37.5548751",20493
2402402,CARNAUBA DOS DANTAS,24,RN,RIO GRANDE DO NORTE,-6.5560588,-36.5930811,"-6.5560588,-36.5930811",8180
2402501,CARNAUBAIS,24,RN,RIO GRANDE DO NORTE,-5.3383681,-36.8335566,"-5.3383681,-36.8335566",10759
2402600,CEARA-MIRIM,24,RN,RIO GRANDE DO NORTE,-5.6335880,-35.4248407,"-5.633588,-35.4248407",73497
2402709,CERRO CORA,24,RN,RIO GRANDE DO NORTE,-6.0412685,-36.3464694,"-6.0412685,-36.3464694",11179
2402808,CORONEL EZEQUIEL,24,RN,RIO GRANDE DO NORTE,-6.3853153,-36.2151622,"-6.3853153,-36.2151622",5506
2402907,CORONEL JOAO PESSOA,24,RN,RIO GRANDE DO NORTE,-6.2607103,-38.4424915,"-6.2607103,-38.4424915",4912
2403004,CRUZETA,24,RN,RIO GRANDE DO NORTE,-6.4113343,-36.7872964,"-6.4113343,-36.7872964",7998
2403103,CURRAIS NOVOS,24,RN,RIO GRANDE DO NORTE,-6.2626676,-36.5173039,"-6.2626676,-36.5173039",44786
2403202,DOUTOR SEVERIANO,24,RN,RIO GRANDE DO NORTE,-6.0948339,-38.3748000,"-6.0948339,-38.3748",7076
2403251,PARNAMIRIM,24,RN,RIO GRANDE DO NORTE,-5.9153334,-35.2679913,"-5.9153334,-35.2679913",261469
2403301,ENCANTO,24,RN,RIO GRANDE DO NORTE,-6.1107477,-38.3050953,"-6.1107477,-38.3050953",5638
2403400,EQUADOR,24,RN,RIO GRANDE DO NORTE,-6.9444824,-36.7177572,"-6.9444824,-36.7177572",6045
2403509,ESPIRITO SANTO,24,RN,RIO GRANDE DO NORTE,-6.3317917,-35.3096508,"-6.3317917,-35.3096508",10505
2403608,EXTREMOZ,24,RN,RIO GRANDE DO NORTE,-5.7092903,-35.3058914,"-5.7092903,-35.3058914",28583
2403707,FELIPE GUERRA,24,RN,RIO GRANDE DO NORTE,-5.5981386,-37.6962757,"-5.5981386,-37.6962757",5985
2403756,FERNANDO PEDROZA,24,RN,RIO GRANDE DO NORTE,-5.6972558,-36.5316864,"-5.6972558,-36.5316864",3054
2403806,FLORANIA,24,RN,RIO GRANDE DO NORTE,-6.1268685,-36.8183238,"-6.1268685,-36.8183238",9116
2403905,FRANCISCO DANTAS,24,RN,RIO GRANDE DO NORTE,-6.0873602,-38.1229256,"-6.0873602,-38.1229256",2824
2404002,FRUTUOSO GOMES,24,RN,RIO GRANDE DO NORTE,-6.1585113,-37.8408614,"-6.1585113,-37.8408614",4068
2404101,GALINHOS,24,RN,RIO GRANDE DO NORTE,-5.0923928,-36.2744827,"-5.0923928,-36.2744827",2786
2404200,GOIANINHA,24,RN,RIO GRANDE DO NORTE,-6.2663538,-35.2092447,"-6.2663538,-35.2092447",26328
2404309,GOVERNADOR DIX-SEPT ROSADO,24,RN,RIO GRANDE DO NORTE,-5.4576782,-37.5209263,"-5.4576782,-37.5209263",13037
2404408,GROSSOS,24,RN,RIO GRANDE DO NORTE,-4.9843455,-37.1511253,"-4.9843455,-37.1511253",10383
2404507,GUAMARE,24,RN,RIO GRANDE DO NORTE,-5.1075294,-36.3196635,"-5.1075294,-36.3196635",15659
2404606,IELMO MARINHO,24,RN,RIO GRANDE DO NORTE,-5.8227944,-35.5519930,"-5.8227944,-35.551993",13766
